ville_nom,ville_code_postal,ville_population_2012,ville_longitude_deg,ville_latitude_deg
PARIS,75001-75002-75003-75004-75005-75006-75007-75008-75009-75010-75011-75012-75013-75014-75015-75016-75017-75018-75019-75020-75116,2211000,2.34445,48.86
MARSEILLE,13001-13002-13003-13004-13005-13006-13007-13008-13009-13010-13011-13012-13013-13014-13015-13016,851400,5.37639,43.2967
LYON,69001-69002-69003-69004-69005-69006-69007-69008-69009,474900,4.84139,45.7589
TOULOUSE,31000-31100-31200-31300-31400-31500,439600,1.43333,43.6
NICE,06000-06100-06200-06300,344900,7.25,43.7
NANTES,44000-44100-44200-44300,283300,-1.55,47.2167
STRASBOURG,67000-67100-67200,272100,7.75,48.5833
MONTPELLIER,34000-34070-34080-34090,253000,3.88333,43.6
BORDEAUX,33000-33100-33200-33300-33800,235900,-0.566667,44.8333
LILLE,59000-59160-59260-59777-59800,225800,3.06667,50.6333
RENNES,35000-35200-35700,206700,-1.68333,48.0833
REIMS,51100,181500,4.03333,49.25
LE HAVRE,76600-76610-76620,178800,0.133333,49.5
SAINT-ETIENNE,42000-42100-42230,172700,4.4,45.4333
TOULON,83000-83100-83200,166700,5.93333,43.1167
GRENOBLE,38000-38100,156700,5.71667,45.1667
DIJON,21000-21100,151600,5.01667,47.3167
ANGERS,49000-49100,148400,-0.55,47.4667
SAINT-DENIS,97490,145022,46.7107,1.71819
LE MANS,72000-72100,143500,0.2,48
AIX-EN-PROVENCE,13080-13090-13100-13290-13540,142700,5.43333,43.5333
BREST,29200,142100,-4.48333,48.4
VILLEURBANNE,69100,141100,4.88333,45.7667
NIMES,30000-30900,140300,4.35,43.8333
LIMOGES,87000-87100-87280,140100,1.25,45.85
CLERMONT-FERRAND,63000-63100,139000,3.08333,45.7833
TOURS,37000-37100-37200,135500,0.683333,47.3833
AMIENS,80000-80080-80090,134400,2.3,49.9
METZ,57000-57050-57070,122800,6.16667,49.1333
BESANCON,25000,117600,6.03333,47.25
PERPIGNAN,66000-66100,116700,2.88333,42.6833
ORLEANS,45000-45100,113300,1.9,47.9167
BOULOGNE-BILLANCOURT,92100,112200,2.25,48.8333
MULHOUSE,68100-68200,111900,7.33333,47.75
CAEN,14000,109900,-0.35,49.1833
ROUEN,76000-76100,109400,1.08333,49.4333
NANCY,54100,106400,6.2,48.6833
SAINT-DENIS,93200-93210,103700,2.35833,48.9333
SAINT-PAUL,97460,103346,-21.0033,55.2833
ARGENTEUIL,95100,103300,2.25,48.95
MONTREUIL,93100,102200,2.43333,48.8667
ROUBAIX,59100,95900,3.16667,50.7
DUNKERQUE,59140-59240-59430-59640-59279,93600,2.36667,51.05
TOURCOING,59200,92600,3.15,50.7167
AVIGNON,84000,90100,4.81667,43.95
NANTERRE,92000,89600,2.2,48.9
POITIERS,86000,89300,0.333333,46.5833
CRETEIL,94000,89300,2.46667,48.7833
FORT-DE-FRANCE,97234,87216,14.627,-61.0732
VERSAILLES,78000,86700,2.13333,48.8
COURBEVOIE,92400,85100,2.25222,48.8973
VITRY-SUR-SEINE,94400,84100,2.4,48.7833
PAU,64000,84000,-0.366667,43.3
COLOMBES,92700,83700,2.25,48.9167
AULNAY-SOUS-BOIS,93600,82200,2.51667,48.95
ASNIERES-SUR-SEINE,92600,81700,2.28556,48.9112
SAINT-PIERRE,97432,79228,43.6566,6.87387
RUEIL-MALMAISON,92500,78100,2.2,48.8833
ANTIBES,06600-06160,77000,7.11667,43.5833
LA ROCHELLE,17000,75800,-1.15,46.1667
SAINT-MAUR-DES-FOSSES,94100-94210,75700,2.5,48.8
CHAMPIGNY-SUR-MARNE,94500,75100,2.51667,48.8167
CALAIS,62100,74800,1.83333,50.95
AUBERVILLIERS,93300,74500,2.38333,48.9167
TAMPON,97430,73365,-21.2815,55.518
CANNES,06400-06150,72900,7.01667,43.55
BEZIERS,34500,71700,3.25,43.35
BOURGES,18000,69000,2.4,47.0833
SAINT-NAZAIRE,44600,66900,-2.2,47.2833
COLMAR,68000,66900,7.36667,48.0833
DRANCY,93700,66200,2.45,48.9333
MERIGNAC,33700,66100,-0.633333,44.8333
AJACCIO,20000-20090,65200,8.7364,41.9256
VALENCE,26000,64500,4.9,44.9333
QUIMPER,29000,63900,-4.1,48
ISSY-LES-MOULINEAUX,92130,63300,2.26667,48.8167
NOISY-LE-GRAND,93160,63100,2.56667,48.85
LEVALLOIS-PERRET,92300,63000,2.28333,48.9
VILLENEUVE-D'ASCQ,59491-59493-59650,62700,3.14167,50.6833
TROYES,10000,61500,4.08333,48.3
ANTONY,92160,61200,2.3,48.75
NEUILLY-SUR-SEINE,92200,60300,2.26667,48.8833
LA SEYNE-SUR-MER,83500,60000,5.88333,43.1
SARCELLES,95200,59200,2.38333,49
ABYMES,97142,58534,16.3065,-61.5106
CLICHY,92110,58400,2.3,48.9
LORIENT,56100,58100,-3.36667,47.75
NIORT,79000,58100,-0.466667,46.3167
PESSAC,33600,57600,-0.616667,44.8
VENISSIEUX,69200,57600,4.88333,45.6833
MAMOUDZOU,97600,57281,45.2317,-12.7814
SAINT-QUENTIN,2100,56800,3.28333,49.85
CHAMBERY,73000,56800,5.93333,45.5667
IVRY-SUR-SEINE,94200,56700,2.38333,48.8167
CERGY,95000-95800,56100,2.06667,49.0333
MONTAUBAN,82000,56000,1.35,44.0167
CAYENNE,97300,55753,4.92215,-52.3054
HYERES,83400,55100,6.11667,43.1167
BEAUVAIS,60155,55000,2.08333,49.4333
CHOLET,49280,54100,-0.883333,47.0667
SAINT-ANDRE,97440,53955,-20.9599,55.6539
BONDY,93140,53300,2.46667,48.9
VILLEJUIF,94800,53200,2.36667,48.8
VANNES,56000,53000,-2.75,47.6667
MAISONS-ALFORT,94700,52900,2.43333,48.8
CHELLES,77500,52800,2.6,48.8833
FONTENAY-SOUS-BOIS,94120,52800,2.48333,48.85
ARLES,13104-13123-13129-13200-13280,52700,4.63333,43.6667
FREJUS,83600-83370,52700,6.73611,43.4339
PANTIN,93500,52700,2.4,48.9
EPINAY-SUR-SEINE,93800,52700,2.30833,48.95
EVRY,91090,52500,2.45,48.6333
SAINT-LOUIS,97450,52038,0,0
LA ROCHE-SUR-YON,85000,51700,-1.43333,46.6667
GRASSE,06130-06520,51600,6.91667,43.6667
SARTROUVILLE,78500,51400,2.18333,48.95
CLAMART,92140,51400,2.26667,48.8
NARBONNE,11100,51000,3,43.1833
CHARLEVILLE-MEZIERES,8090,50900,4.71667,49.7667
LAVAL,53000,50900,-0.766667,48.0667
EVREUX,27000,50800,1.15,49.0167
SEVRAN,93270,50800,2.53333,48.9333
LE BLANC-MESNIL,93150,50700,2.45,48.9333
BELFORT,90000,50300,6.86667,47.6333
ANNECY,74000,50100,6.11667,45.9
BRIVE-LA-GAILLARDE,19100,49700,1.53333,45.15
CAGNES-SUR-MER,6800,48900,7.15,43.6667
ALBI,81990,48800,2.15,43.9333
MEAUX,77100,48700,2.86667,48.95
SAINT-MALO,35400,48200,-2.01667,48.65
VINCENNES,94300,48100,2.43333,48.85
BOBIGNY,93000,47700,2.45,48.9
CARCASSONNE,11000,47600,2.35,43.2167
BLOIS,41000,46800,1.33333,47.5833
MONTROUGE,92120,46700,2.31667,48.8167
MARTIGUES,13117-13500,46500,05.05,43.4
AUBAGNE,13400,46100,5.56667,43.2833
CHALONS-EN-CHAMPAGNE,51000,46100,4.36667,48.9583
CHATEAUROUX,36000,46000,1.7,46.8167
CHALON-SUR-SAONE,71100,46000,4.85,46.7833
SAINT-BRIEUC,22000,45900,-2.78333,48.5167
SURESNES,92150,45600,2.23333,48.8667
SAINT-OUEN,93400,45600,2.33333,48.9
MEUDON,92190-92360,44700,2.24167,48.8083
ALFORTVILLE,94140,44700,2.41667,48.8
BAYONNE,64100,44500,-1.48333,43.4833
PUTEAUX,92800,44500,2.23333,48.8667
TARBES,65000,44200,0.083333,43.2333
BOULOGNE-SUR-MER,62200,43800,1.61667,50.7167
BASTIA,20200-20600,43500,9.44945,42.7
SAINT-HERBLAIN,44800,43200,-1.65,47.2167
ANGOULEME,16000,43100,0.15,45.65
CASTRES,81100,43000,2.25,43.6
SETE,34200,42800,3.68333,43.4
ARRAS,62000,42800,2.78333,50.2833
VALENCIENNES,59300,42700,3.53333,50.35
ISTRES,13118-13800,42600,4.98333,43.5167
MANTES-LA-JOLIE,78200,42600,1.71667,48.9833
DOUAI,59500,42400,3.06667,50.3667
WATTRELOS,59150,41800,3.21667,50.7
GENNEVILLIERS,92230,41800,2.3,48.9333
LIVRY-GARGAN,93190,41800,2.55,48.9167
CORBEIL-ESSONNES,91100,41700,2.48333,48.6
COMPIEGNE,60200,41600,2.83333,49.4167
SAINT-PRIEST,69800,41500,4.93333,45.6917
SALON-DE-PROVENCE,13300,41400,5.1,43.6333
THIONVILLE,57100,41100,6.16667,49.3667
LE CANNET,6110,40900,7.01667,43.5667
CALUIRE-ET-CUIRE,69300,40900,4.85,45.8
SAINT-GERMAIN-EN-LAYE,78100,40900,2.08333,48.9
ROSNY-SOUS-BOIS,93110,40800,2.48333,48.8667
TALENCE,33400,40600,-0.6,44.8167
ALES,30100,40500,4.08333,44.1333
MASSY,91300,40500,2.28333,48.7333
VAULX-EN-VELIN,69120,40400,4.93333,45.7833
BOURG-EN-BRESSE,1000,40200,5.21667,46.2
CHERBOURG-OCTEVILLE,50100-50130,39800,-1.65,49.65
GARGES-LES-GONESSE,95140,39600,2.41667,48.9667
MONTLUCON,3100,39500,2.6,46.3333
LAMENTIN,97232,39360,14.6191,-60.9946
CHARTRES,28000,39200,1.5,48.45
BRON,69500,39100,4.91667,45.7333
MARCQ-EN-BAROEUL,59700,38900,3.08333,50.6667
MELUN,77000,38900,2.66667,48.5333
NOISY-LE-SEC,93130,38700,2.46667,48.8833
GAP,5000,38600,6.08333,44.5667
BAGNEUX,92220,38500,2.3,48.8
PORT,97420,38418,-20.9348,55.2987
SAINT-LAURENT-DU-MARONI,97320,38367,5.28697,-53.7897
GAGNY,93220,38300,2.53333,48.8833
CHOISY-LE-ROI,94600,38200,2.41667,48.7667
REZE,44400,37900,-1.56667,47.2
ANGLET,64600,37900,-1.53333,43.4833
NEVERS,58000,37600,3.16667,46.9833
POISSY,78300,37500,02.05,48.9333
SAVIGNY-SUR-ORGE,91600,37300,2.35,48.6667
SAINT MARTIN,97150,36979,18.0913,-63.0829
AUXERRE,89000-89290,36900,3.56667,47.8
LA COURNEUVE,93120,36900,2.38333,48.9167
VITROLLES,13127,36600,5.25,43.4667
DRAGUIGNAN,83300,36600,6.46667,43.5333
LENS,62300,36100,2.83333,50.4333
SAINT-JOSEPH,97480,35976,0,0
ROANNE,42300,35900,4.06889,46.0367
JOUE-LES-TOURS,37300,35800,0.666667,47.35
VILLEPINTE,93420,35800,2.53333,48.9667
ECHIROLLES,38130,35700,5.71667,45.1333
SAINT-MARTIN-D'HERES,38400,35600,5.76667,45.1667
SAINT-CHAMOND,42400,35500,4.5,45.4667
TREMBLAY-EN-FRANCE,93290,35500,2.57639,48.9562
HAGUENAU,67500,35100,7.78333,48.8167
SAINT-BENOIT,97470,35063,-21.0396,55.6972
MONTELIMAR,26200,34800,4.75,44.5667
PONTAULT-COMBAULT,77340,34800,2.60528,48.7984
CONFLANS-SAINTE-HONORINE,78700,34800,2.1,48.9833
SIX-FOURS-LES-PLAGES,83140,34800,5.83945,43.0934
CREIL,60100,34600,2.48333,49.2667
STAINS,93240,34600,2.38333,48.95
MACON,71870,34300,4.83333,46.3
VILLEFRANCHE-SUR-SAONE,69400,34200,4.71667,45.9833
MONTIGNY-LE-BRETONNEUX,78180,34000,2.03333,48.7667
SAINT-RAPHAEL,83700-83530,34000,6.76667,43.4167
SAINTE-GENEVIEVE-DES-BOIS,91700,34000,2.33333,48.6333
BAGNOLET,93170,34000,2.41667,48.8667
MARIGNANE,13700,33900,5.21667,43.4167
LA CIOTAT,13600,33800,5.6,43.1667
DIEPPE,76200,33600,1.08333,49.9333
CHATELLERAULT,86100,33500,0.533333,46.8
ROMANS-SUR-ISERE,26100,33400,05.05,45.05
COLOMIERS,31770,33200,1.35,43.6167
AGEN,47000,33200,0.633333,44.2
NEUILLY-SUR-MARNE,93330,33200,2.53333,48.85
FRANCONVILLE,95130,33200,2.23333,48.9833
EPINAL,88000,33000,6.45,48.1833
THONON-LES-BAINS,74200,32800,6.48333,46.3667
CHATILLON,92320,32500,2.28333,48.8
MAUBEUGE,59600,32400,3.96667,50.2833
CAMBRAI,59400,32300,3.23333,50.1667
LES MUREAUX,78130,32300,1.91667,49
LE PERREUX-SUR-MARNE,94170,32300,2.5,48.85
LIEVIN,62800,32000,2.76667,50.4167
CHATENAY-MALABRY,92290,31900,2.26667,48.7667
VIRY-CHATILLON,91170,31700,2.38333,48.6667
DREUX,28100,31200,1.36667,48.7333
VANDOEUVRE-LES-NANCY,54500,31100,6.18333,48.65
SCHILTIGHEIM,67300,31100,7.75,48.6
SAINT-LEU,97436,30966,0,0
HOUILLES,78800,30900,2.2,48.9167
MALAKOFF,92240,30900,2.3,48.8167
NOGENT-SUR-MARNE,94130,30900,2.48333,48.8333
PLAISIR,78370,30800,1.95,48.8167
VILLENEUVE-SAINT-GEORGES,94190,30800,2.45,48.7333
ATHIS-MONS,91200,30600,2.4,48.7167
GOUSSAINVILLE,95190,30600,2.46667,49.0167
ANNEMASSE,74100,30500,6.25,46.2
PALAISEAU,91120,30400,2.25,48.7167
POSSESSION,97419,30373,-20.9316,55.3354
SAINT-LAURENT-DU-VAR,6700,30300,7.18333,43.6667
BAIE-MAHAULT,97122,30251,16.2576,-61.5883
MONT-DE-MARSAN,40000,30200,-0.5,43.8833
SOTTEVILLE-LES-ROUEN,76300,30000,1.1,49.4167
SAINTE-MARIE,97438,29951,-20.8971,55.5499
VIENNE,38200,29900,4.86667,45.5167
CHATOU,78400,29900,2.15,48.8833
SAINT-CLOUD,92210,29800,2.21667,48.8417
PONTOISE,95300,29700,2.1,49.05
RILLIEUX-LA-PAPE,69140,29600,4.89833,45.8214
THIAIS,94320,29600,2.38333,48.7667
MEYZIEU,69330,29500,5.00333,45.7672
ORANGE,84100,29500,4.8,44.1333
L'HAY-LES-ROSES,94240,29500,2.33333,48.7833
LE CHESNAY,78150,29300,2.125,48.825
VALLAURIS,6220,29100,07.05,43.5833
PERIGUEUX,24000,29100,0.716667,45.1833
CLICHY-SOUS-BOIS,93390,29100,2.55,48.9167
CARPENTRAS,84200,29000,05.05,44.05
YERRES,91330,29000,2.5,48.7167
PIERREFITTE-SUR-SEINE,93380,28900,2.36667,48.9667
MENTON,6500,28800,7.5,43.7833
VILLENAVE-D'ORNON,33140,28800,-0.55,44.7667
DRAVEIL,91210,28700,2.41667,48.6833
AURILLAC,15000,28600,2.45,44.9167
GUYANCOURT,78280,28600,2.06667,48.7667
CHARENTON-LE-PONT,94220,28600,2.41667,48.8167
SOISSONS,2200,28500,3.33333,49.3667
TRAPPES,78190,28500,2,48.7833
VILLEMOMBLE,93250,28200,2.5,48.8833
MATOURY,97351,28110,4.84806,-52.3329
SAUMUR,49400,28100,-0.083333,47.2667
SAINT-ETIENNE-DU-ROUVRAY,76800,28100,1.1,49.3833
LAMBERSART,59130,28000,3.03333,50.65
BEZONS,95870,28000,2.21667,48.9333
SAVIGNY-LE-TEMPLE,77176,27800,2.58333,48.5667
BOIS-COLOMBES,92270,27800,2.26667,48.9167
ALENCON,61000,27700,0.083333,48.4333
CACHAN,94230,27700,2.33333,48.7833
ERMONT,95120,27700,2.26667,48.9833
BERGERAC,24100,27600,0.483333,44.85
VIERZON,18100,27500,2.08333,47.2167
VILLIERS-SUR-MARNE,94350,27500,2.55,48.8333
SAINT-MEDARD-EN-JALLES,33160,27400,-0.733333,44.9
ELANCOURT,78990,27300,1.95,48.7833
GRIGNY,91350,27200,2.38333,48.65
AIX-LES-BAINS,73100,27100,5.91667,45.7
RIS-ORANGIS,91000,27000,2.41667,48.65
VIGNEUX-SUR-SEINE,91270,27000,2.41667,48.7
VILLIERS-LE-BEL,95400,27000,2.38333,49
ILLKIRCH-GRAFFENSTADEN,67400,26700,7.71667,48.5333
LA GARENNE-COLOMBES,92250,26700,2.25,48.9
SAINTES,17100,26500,-0.633333,45.75
VANVES,92170,26500,2.3,48.8333
GONESSE,95500,26500,2.45,48.9833
KOUNGOU,97600,26488,45.2023,-12.7341
SAINT-DIZIER,52100,26400,4.95,48.6333
GOSIER,97190,26311,16.2063,-61.4948
BIARRITZ,64200,26300,-1.56667,43.4833
TAVERNY,95150,26300,2.21667,49.0333
LAON,2000,26200,3.61667,49.5667
MONTBELIARD,25200,26200,6.8,47.5167
LA GARDE,83130,26200,6.01056,43.1248
LE KREMLIN-BICETRE,94270,26100,2.36667,48.8167
SUCY-EN-BRIE,94880,26100,2.53333,48.7667
HERBLAY,95220,26000,2.16667,49
SENS,89100,25900,3.28389,48.1981
SANNOIS,95110,25900,2.25,48.9667
LE GRAND-QUEVILLY,76120,25800,1.03333,49.4167
RAMBOUILLET,78120,25800,1.83333,48.65
ROCHEFORT,17300,25700,-0.983333,45.9333
BETHUNE,62400,25700,2.63333,50.5333
OULLINS,69600,25700,4.8,45.7167
MIRAMAS,13140,25600,5,43.5833
TOURNEFEUILLE,31170,25600,1.35,43.5833
HENIN-BEAUMONT,62110,25600,2.93333,50.4167
BRUNOY,91800,25600,2.5,48.7
ROMAINVILLE,93230,25600,2.43333,48.8833
DOLE,39100,25400,5.5,47.1
CAVAILLON,84300,25400,5.03805,43.8375
VICHY,3200,25200,3.41667,46.1167
KOUROU,97310,25189,5.1683,-52.6456
VERNON,27200,25000,1.48333,49.0833
BEGLES,33130,25000,-0.533333,44.8
ARMENTIERES,59280,25000,2.88333,50.6833
FRESNES,94260,25000,2.31667,48.75
DECINES-CHARPIEU,69150,24800,4.96667,45.75
BOURGOIN-JALLIEU,38300,24700,5.27972,45.5917
SAINT-SEBASTIEN-SUR-LOIRE,44230,24700,-1.5,47.2167
LE PLESSIS-ROBINSON,92350,24700,2.26667,48.7833
VILLENEUVE-LA-GARENNE,92390,24700,2.33333,48.9333
EPERNAY,51200,24600,3.95,49.05
LES ULIS,91940,24600,2.1675,48.6823
RODEZ,12000,24500,2.56667,44.3333
MONTFERMEIL,93370,24500,2.56667,48.9
LA TESTE-DE-BUCH,33260,24400,-1.13704,44.6343
LUNEL,34400,24400,4.13333,43.6833
ORVAULT,44700,24400,-1.61667,47.2667
SAINTE-ANNE,97180,24192,16.2238,-61.3864
CHAMPS-SUR-MARNE,77420,24100,2.6,48.85
ABBEVILLE,80132,24100,1.83333,50.1
FONTENAY-AUX-ROSES,92260,24100,2.28333,48.7833
CHAUMONT,52000,24000,5.13333,48.1167
ROBERT,97231,23918,14.6753,-60.9414
VILLEPARISIS,77270,23900,2.61667,48.9333
EAUBONNE,95600,23800,2.28333,49
LIBOURNE,33500,23700,-0.233333,44.9167
BRUAY-LA-BUISSIERE,62700,23700,2.54778,50.4812
VILLENEUVE-SUR-LOT,47300,23600,0.716667,44.4
MURET,31600,23300,1.35,43.4667
GRADIGNAN,33170,23300,-0.616667,44.7667
LE BOUSCAT,33110,23200,-0.616667,44.8667
FRONTIGNAN,34110,23200,3.75,43.45
LE CREUSOT,71200,23200,4.43333,46.8
SAINT-OUEN-L'AUMONE,95310,23200,2.11667,49.05
PETIT-BOURG,97170,23199,16.1878,-61.5899
OYONNAX,1100,23100,5.66667,46.25
SEVRES,92310,23100,2.2,48.8167
MONTIGNY-LES-METZ,57158,22800,6.15,49.1
COUDEKERQUE-BRANCHE,59210,22800,2.4,51.0333
MONTGERON,91230,22700,2.45,48.7
MAISONS-LAFFITTE,78600,22600,2.15,48.95
CENON,33150,22500,-0.533333,44.85
AGDE,34300,22500,3.46667,43.3167
LANESTER,56600,22500,-3.35,47.75
BRETIGNY-SUR-ORGE,91220,22500,2.31667,48.6167
SAINT-MANDE,94160,22500,2.41667,48.8333
SAINTE-SUZANNE,97441,22421,0,0
CORMEILLES-EN-PARISIS,95240,22400,2.2,48.9833
MOULE,97160,22381,16.3339,-61.3472
MANOSQUE,4100,22300,5.78333,43.8333
HEROUVILLE-SAINT-CLAIR,14200,22300,-0.316667,49.2
BEAUNE,21200,22200,4.83333,47.0333
LA MADELEINE,59110,22200,3.06667,50.65
SAINTE-FOY-LES-LYON,69110,22200,4.8,45.7333
ROISSY-EN-BRIE,77680,22200,2.65,48.8
ETAMPES,91150,22200,2.15,48.4333
LES LILAS,93260,22200,2.43333,48.8833
LISIEUX,14100,22100,0.233333,49.15
FONTAINE,38600,22100,5.66667,45.1833
MONS-EN-BAROEUL,59370,22100,3.10778,50.642
SARREGUEMINES,57200,22000,07.05,49.1
MILLAU,12100,21900,3.08333,44.1
LE PETIT-QUEVILLY,76140,21900,1.03333,49.4333
TORCY,77200,21900,2.65,48.85
FORBACH,57600,21800,6.9,49.1833
AUCH,32810,21700,0.583333,43.65
HAZEBROUCK,59190,21700,2.53333,50.7167
SAINT-DIE-DES-VOSGES,88100,21700,6.95,48.2833
DEUIL-LA-BARRE,95170,21700,2.33333,48.9833
BLAGNAC,31700,21600,1.4,43.6333
VERTOU,44120,21400,-1.48333,47.1667
LOOS,59120,21400,3.01667,50.6167
LA VALETTE-DU-VAR,83160,21400,5.98333,43.1333
LONGJUMEAU,91160,21400,2.3,48.7
MONTMORENCY,95160,21400,2.33333,49
COMBS-LA-VILLE,77380,21300,2.56667,48.6667
MANDELIEU-LA-NAPOULE,6210,21200,6.93333,43.55
FLEURY-LES-AUBRAIS,45400,21200,1.91667,47.9333
GIF-SUR-YVETTE,91190,21200,2.13333,48.6833
GARDANNE,13120,21100,5.46667,43.45
BUSSY-SAINT-GEORGES,77600,21100,2.7,48.85
MORSANG-SUR-ORGE,91390,21100,2.35,48.6667
GRANDE-SYNTHE,59760,21000,2.28333,51.0167
LA CELLE-SAINT-CLOUD,78170,20900,2.15,48.85
ORLY,94310,20900,2.4,48.75
SHOELCHER,97233,20814,0,0
CROIX,59170,20800,3.15,50.6667
LE MEE-SUR-SEINE,77350,20800,2.63333,48.5333
LES PAVILLONS-SOUS-BOIS,93320,20700,2.51667,48.9
DAX,40100,20500,-1.05,43.7167
OZOIR-LA-FERRIERE,77330,20500,2.66667,48.7667
VOIRON,38500,20400,5.58333,45.3667
NEUILLY-PLAISANCE,93360,20300,2.51667,48.8667
SAINT-GRATIEN,95210,20300,2.28333,48.9667
LES PENNES-MIRABEAU,13170,20200,5.31667,43.4083
DENAIN,59220,20200,3.38333,50.3333
LAGNY-SUR-MARNE,77400,20200,2.71667,48.8667
SAINT-MICHEL-SUR-ORGE,91240,20200,2.3,48.6333
SAINTE-ROSE,97115,20155,16.3313,-61.6948
CONCARNEAU,29900,20100,-3.91667,47.8667
FOUGERES,35300,20100,-1.2,48.35
OLIVET,45160,20100,1.9,47.8667
LUNEVILLE,54300,20100,6.5,48.6
SAINT-GENIS-LAVAL,69230,20100,4.8,45.6833
DAMMARIE-LES-LYS,77190,20100,2.63445,48.5153
CAHORS,46000,20000,1.43333,44.4333
MONT-SAINT-AIGNAN,76130,20000,1.08333,49.4667
VELIZY-VILLACOUBLAY,78140,20000,2.18333,48.8
BOURG-LA-REINE,92340,20000,2.31667,48.775
LORMONT,33310,19900,-0.533333,44.8667
HALLUIN,59250,19900,3.13333,50.7833
SAINT-LOUIS,68128,19900,7.56667,47.5833
MOULINS,3000,19800,3.33333,46.5667
ANNECY-LE-VIEUX,74940,19800,6.15,45.9167
ARCUEIL,94110,19800,2.33333,48.8
MOUGINS,6250,19700,7,43.6
LANNION,22300,19700,-3.46667,48.7333
MONTCEAU-LES-MINES,71300,19700,4.36667,46.6667
ACHERES,78260,19700,2.06667,48.9667
NOGENT-SUR-OISE,60180,19600,2.46667,49.2667
SCEAUX,92330,19600,2.28333,48.7833
GIVORS,69700,19500,4.76667,45.5833
FECAMP,76400,19400,0.366667,49.75
CAPESTERRE-BELLE-EAU,97130,19321,16.0382,-61.5936
VERDUN,55100,19300,5.38278,49.1598
SELESTAT,67600,19300,7.45,48.2667
REMIRE-MONTJOLY,97354,19279,4.91396,-52.2738
FRANCOIS,97240,19218,14.6145,-60.9124
VENCE,6140,19200,7.11667,43.7167
SEDAN,8200,19200,4.95,49.7
COGNAC,16100,19100,-0.333333,45.7
SAINT-LO,50000,19100,-1.08333,49.1167
COURNON-D'AUVERGNE,63800,19100,3.21667,45.75
WASQUEHAL,59290,19000,3.15,50.6667
CHEVILLY-LARUE,94550,19000,2.35,48.7667
VILLEFONTAINE,38090,18900,5.15,45.6167
LE PUY-EN-VELAY,43000,18900,3.88583,45.0442
SAINT-JEAN-DE-BRAYE,45800,18900,1.96667,47.9
MANTES-LA-VILLE,78200,18900,1.71667,48.9667
L'ISLE-SUR-LA-SORGUE,84800,18900,05.05,43.9167
PERTUIS,84120,18900,5.5,43.6833
MONTIGNY-LES-CORMEILLES,95370,18900,2.18333,48.9833
MAUREPAS,78310,18800,1.91667,48.7667
LIMEIL-BREVANNES,94450,18800,2.48333,48.7333
ALLAUCH,13190,18700,5.48333,43.3333
EYSINES,33320,18700,-0.65,44.8833
PONTARLIER,25300,18600,6.36667,46.9
TASSIN-LA-DEMI-LUNE,69160,18600,4.78333,45.7667
BRESSUIRE,79300,18600,-0.483333,46.85
ROYAN,17200,18500,-1.03333,45.6333
BAGNOLS-SUR-CEZE,30200,18500,4.61667,44.1667
GUJAN-MESTRAS,33470,18500,-1.06667,44.6333
ALBERTVILLE,73200,18500,6.38333,45.6833
MITRY-MORY,77290,18500,2.61667,48.9833
LE PLESSIS-TREVISE,94420,18500,2.56667,48.8167
VILLENEUVE-LE-ROI,94290,18500,2.41667,48.7333
BOURG-LES-VALENCE,26500,18400,4.88333,44.95
COUERON,44220,18400,-1.73333,47.2167
CHILLY-MAZARIN,91380,18400,2.3,48.7
SAINTE-MARIE,97230,18389,14.7604,-61.0111
RONCHIN,59790,18300,3.1,50.6
CHALLANS,85300,18300,-1.88333,46.85
LOUVIERS,27400,18200,1.16667,49.2167
PLOEMEUR,56270,18200,-3.43333,47.7333
SORGUES,84700,18200,4.86667,44
GARCHES,92380,18200,2.18333,48.8417
LONS-LE-SAUNIER,39570,18100,5.55,46.6667
CHAVILLE,92370,18100,2.2,48.8
ECULLY,69130,18000,4.76667,45.7667
CLUSES,74300,18000,6.6,46.0667
MARMANDE,47200,17900,0.166667,44.5
SEYNOD,74600,17900,6.08333,45.8833
RIOM,63200,17800,3.11667,45.9
HEM,59510,17700,3.2,50.65
BISCHHEIM,67800,17700,7.75,48.6167
CHENNEVIERES-SUR-MARNE,94430,17700,2.51667,48.8
AVION,62210,17600,2.83333,50.4
SAINT-CYR-L'ECOLE,78210,17600,2.06667,48.8
LE PRE-SAINT-GERVAIS,93310,17600,2.4,48.8833
FIRMINY,42700,17500,4.3,45.3833
ROMORANTIN-LANTHENAY,41200,17400,1.74361,47.3589
CARQUEFOU,44470,17400,-1.5,47.3
EQUEURDREVILLE-HAINNEVILLE,50120,17400,0.345279,49.6484
CARVIN,62220,17400,2.96667,50.4833
JOINVILLE-LE-PONT,94340,17400,2.46667,48.8167
GENTILLY,94250,17400,2.33333,48.8167
SOISY-SOUS-MONTMORENCY,95230,17400,2.3,48.9833
DIGNE-LES-BAINS,4000,17300,6.23639,44.0933
ANNONAY,7100,17200,4.66667,45.2333
PORT-DE-BOUC,13110,17200,4.98333,43.4
MEYLAN,38240,17200,5.78333,45.2333
ELBEUF,76500,17200,1,49.2833
MOISSY-CRAMAYEL,77550,17200,2.6,48.6167
LES CLAYES-SOUS-BOIS,78340,17200,1.98333,48.8167
CHAMALIERES,63400,17100,3.06667,45.7833
SAINT-FONS,69190,17100,4.86667,45.7
SANARY-SUR-MER,83110,17100,5.8,43.1167
LA CHAPELLE-SUR-ERDRE,44240,17000,-1.55,47.3
MARLY-LE-ROI,78160,16900,2.08333,48.8667
LE PONTET,84130,16900,4.85,43.9667
DUCOS,97224,16896,14.5741,-60.9849
BOUGUENAIS,44340,16800,-1.61667,47.1833
LINGOLSHEIM,67380,16800,7.68333,48.5667
MORNE-A-L'EAU,97111,16725,16.3257,-61.4403
SAINT-JOSEPH,97212,16717,0,0
VITRE,35500,16700,-1.2,48.1333
VENDOME,41100,16700,1.06667,47.8
LA BAULE-ESCOUBLAC,44500,16700,-2.36667,47.3
SAINT-JEAN-DE-LA-RUELLE,45140,16700,1.86667,47.9167
SAINT-AMAND-LES-EAUX,59230,16700,3.43333,50.4333
FACHES-THUMESNIL,59155,16700,3.06667,50.5833
JOUY-LE-MOUTIER,95280,16700,2.03333,49.0167
SAINT-AVOLD,57500,16600,6.7,49.1
ERAGNY,95610,16600,2.1,49.0167
CESTAS,33610,16500,-0.683333,44.7333
SIN-LE-NOBLE,59450,16500,3.11667,50.3667
BONNEUIL-SUR-MARNE,94380,16500,2.48333,48.7667
POINTE-A-PITRE,97110,16427,16.2409,-61.5353
CRAN-GEVRIER,74960,16400,6.1,45.9
LE PECQ,78230,16400,2.1,48.9
LA CRAU,83260,16400,6.06667,43.15
LATTES,34970,16300,3.9,43.5667
TOURLAVILLE,50110,16300,-1.56667,49.6333
SENLIS,60300,16300,2.58333,49.2
VESOUL,70000,16300,6.16667,47.6333
MONTIVILLIERS,76290,16300,0.2,49.55
MONTEREAU-FAULT-YONNE,77130,16300,2.95,48.3833
LE VESINET,78110,16300,2.11667,48.9
ORSAY,91400,16300,2.18333,48.7
YUTZ,57970,16200,6.18862,49.3589
TOUL,54200,16100,5.9,48.6833
VIROFLAY,78220,16100,2.16667,48.8
PLAISANCE-DU-TOUCH,31830,16000,1.3,43.5667
FLOIRAC,33270,16000,-0.533333,44.8333
LIMAY,78520,16000,1.73333,48.9833
LAMENTIN,97129,15913,16.2713,-61.6338
PAMIERS,9100,15900,1.6,43.1167
CUGNAUX,31270,15900,1.36667,43.5333
BRIE-COMTE-ROBERT,77170,15900,2.61667,48.6833
BRIGNOLES,83170,15900,6.06667,43.4
OSNY,95520,15900,2.06667,49.0667
MAUGUIO,34130,15800,4.01667,43.6167
SAINT-CYR-SUR-LOIRE,37540,15800,0.666667,47.4
SAINT-EGREVE,38120,15800,5.68306,45.2317
BAR-LE-DUC,55000,15800,5.16667,48.7833
TULLE,19000,15700,1.76667,45.2667
LUCE,28110,15700,1.46667,48.4333
FLERS,61100,15700,-0.566667,48.75
VERRIERES-LE-BUISSON,91370,15700,2.26667,48.75
BOISSY-SAINT-LEGER,94470,15700,2.51667,48.75
VAUREAL,95490,15700,2.03333,49.0333
MORLAIX,29600,15600,-3.83333,48.5833
BRUZ,35170,15600,-1.75,48.0333
SALLANCHES,74700,15600,6.63333,45.9333
NOISIEL,77186,15600,2.63333,48.85
BEAUCAIRE,30300,15500,4.63333,43.8
SAINT-PIERRE-DES-CORPS,37700,15500,0.733333,47.3833
MONTARGIS,45200,15500,2.75,48
FOS-SUR-MER,13270,15400,4.95,43.4333
HAYANGE,57700,15400,06.05,49.3333
LOURDES,65100,15400,-0.05,43.1
LA FLECHE,72200,15400,-0.083333,47.7
FONTAINEBLEAU,77300,15400,2.7,48.4
CARRIERES-SUR-SEINE,78420,15400,2.18333,48.9167
VERNEUIL-SUR-SEINE,78480,15400,1.98333,48.9833
L'ISLE-D'ABEAU,38080,15300,5.23333,45.6167
GIEN,45500,15300,2.63333,47.7
SARAN,45770,15300,1.88333,47.95
BRY-SUR-MARNE,94360,15300,2.51667,48.8333
CESSON-SEVIGNE,35510,15200,-1.6,48.125
GUERANDE,44350,15200,-2.43333,47.3333
DOUARNENEZ,29100,15100,-4.33333,48.1
BERCK,62600,15100,1.59278,50.4084
MONTESSON,78360,15100,2.15,48.9167
LANDERNEAU,29800,15000,-4.25,48.45
CASTELNAU-LE-LEZ,34170,15000,3.9,43.6333
SAINT-OMER,62500,15000,2.25,50.75
LOGNES,77185,15000,2.61667,48.8333
LES SABLES-D'OLONNE,85180,15000,-1.78333,46.5
MONTBRISON,42600,14900,04.05,45.6
LAXOU,54520,14900,6.15,48.6833
AUTUN,71400,14900,4.3,46.95
CHATEAU-THIERRY,2400,14800,3.4,49.05
CHATEAURENARD,13160,14800,4.85,43.8833
BLANQUEFORT,33290,14800,-0.633333,44.9167
RIVE-DE-GIER,42800,14800,4.61667,45.5333
VILLERS-LES-NANCY,54600,14800,6.15,48.6667
CANTELEU,76380,14800,1.03333,49.45
LES HERBIERS,85500,14800,-1.01667,46.8667
SAINT-FRANCOIS,97118,14797,16.251,-61.2728
HAUTMONT,59330,14700,3.93333,50.25
SAINT-LEU-LA-FORET,95320,14700,2.25,49.0167
HENNEBONT,56700,14600,-3.28333,47.8
ILLZACH,68110,14600,7.33333,47.7833
SAINT-MAURICE,94410,14600,2.45833,48.8167
DOMONT,95330,14600,2.33333,49.0333
TERGNIER,2700,14500,3.3,49.65
CHENOVE,21300,14500,5,47.2833
AUDINCOURT,25400,14500,6.83333,47.4833
SAINT-JUST-SAINT-RAMBERT,42170,14500,4.24,45.4995
HAUBOURDIN,59320,14500,2.98333,50.6
CARRIERES-SOUS-POISSY,78955,14500,2.03333,48.95
VILLENEUVE-LOUBET,6270,14400,7.11667,43.65
ARGENTAN,61200,14400,-0.016667,48.75
OUTREAU,62230,14400,1.58333,50.7
JUVISY-SUR-ORGE,91260,14400,2.38333,48.6833
DZAOUDZI,97610,14311,45.2705,-12.7888
PONT-A-MOUSSON,54700,14300,6.06667,48.9
WITTENHEIM,68270,14300,7.33333,47.8167
FONTENAY-LE-COMTE,85200,14300,-0.816667,46.4667
SAINT-BRICE-SOUS-FORET,95350,14300,2.36667,49
VITRY-LE-FRANCOIS,51300,14200,4.58333,48.7333
LONGWY,54400,14200,5.76667,49.5167
ISSOIRE,63500,14200,3.25,45.55
AVON,77210,14200,2.71667,48.4
BEAUSOLEIL,6240,14100,7.43333,43.75
GUERET,23000,14100,1.86667,46.1667
BRUGES,33520,14100,-0.616667,44.8833
HENDAYE,64700,14100,-1.775,43.3583
BOLLENE,84500,14100,4.75,44.2833
COURCOURONNES,91080,14100,2.4,48.6167
MONTMAGNY,95360,14100,2.35,48.9667
SAINT-AVERTIN,37550,14000,0.733333,47.3667
PORNIC,44210,14000,-2.1,47.1167
CAUDRY,59540,14000,3.41667,50.1333
BERRE-L'ETANG,13130,13900,5.18333,43.4667
CHATEAUDUN,28200,13900,1.33333,48.0833
ANZIN,59410,13900,3.5,50.3667
SAINT-MAXIMIN-LA-SAINTE-BAUME,83470,13900,5.86667,43.45
ROMILLY-SUR-SEINE,10100,13800,3.71667,48.5167
GUIPAVAS,29490,13800,-4.4,48.4333
NOYON,60400,13800,3,49.5833
CREPY-EN-VALOIS,60800,13800,2.9,49.2333
SAINT-JEAN-DE-LUZ,64500,13800,-1.66667,43.3833
TRINITE,97220,13724,14.7388,-60.9629
VAL-DE-REUIL,27100,13700,1.21028,49.2745
PONTIVY,56300,13700,-2.98333,48.0667
COULOMMIERS,77120,13700,3.08333,48.8167
SAINTE-MAXIME,83120,13700,6.63333,43.3
BOIS-D'ARCY,78390,13600,2.01667,48.8
LE BOURGET,93350,13600,2.41667,48.9333
LE RAINCY,93340,13600,2.51667,48.9
ROQUEBRUNE-CAP-MARTIN,6190,13500,7.46667,43.7667
BAYEUX,14400,13500,-0.7,49.2667
PLERIN,22190,13500,-2.78333,48.5333
SAINT-GILLES,30800,13500,4.43333,43.6833
ISSOUDUN,36100,13500,2,46.95
ETANG-SALE,97427,13467,-21.2652,55.3663
BOUC-BEL-AIR,13320,13400,5.41667,43.45
CREUTZWALD,57150,13400,6.69584,49.2053
RUMILLY,74150,13400,5.95,45.8667
CUSSET,3300,13300,3.46667,46.1333
TARASCON,13150,13300,4.66667,43.8
MAYENNE,53100,13300,-0.616667,48.3
BAILLEUL,59270,13300,2.73333,50.7333
BILLERE,64140,13300,-0.4,43.3
RIVIERE-PILOTE,97211,13221,14.4867,-60.9018
LA CHAPELLE-SAINT-LUC,10600,13200,04.05,48.3333
FREYMING-MERLEBACH,57800,13200,6.79889,49.1417
MOUVAUX,59420,13200,3.13333,50.7
RAISMES,59590,13200,3.48333,50.3833
CHATEAU-D'OLONNE,85180,13200,-1.73333,46.5
MENNECY,91540,13200,2.43333,48.5667
ARNOUVILLE,95400,13200,2.41667,48.9833
PLOUGASTEL-DAOULAS,29470,13100,-4.36667,48.3667
AMBARES-ET-LAGRAVE,33440,13100,-0.486667,44.9248
GRANVILLE,50400,13100,-1.6,48.8333
KINGERSHEIM,68260,13100,7.33333,47.8
RIXHEIM,68170,13100,7.4,47.7667
GAILLAC,81600,13100,1.91667,43.9
BALMA,31130,13000,1.5,43.6167
LE CHAMBON-FEUGEROLLES,42500,13000,4.31667,45.4
CHALETTE-SUR-LOING,45120,13000,2.73333,48.0167
FOURMIES,59610,13000,04.05,50
BOIS-GUILLAUME,76230,13000,1.13333,49.4667
CASTELSARRASIN,82100,13000,1.1,44.0333
OLLIOULES,83190,13000,5.85,43.1333
OLONNE-SUR-MER,85340,13000,-1.78333,46.5333
PIERRELATTE,26700,12900,4.7,44.3833
SARREBOURG,57400,12900,07.05,48.7333
AMBERIEU-EN-BUGEY,1500,12800,5.35,45.95
VILLENEUVE-LES-AVIGNON,30400,12800,4.79584,43.9664
WATTIGNIES,59139,12800,03.05,50.5833
LYS-LEZ-LANNOY,59390,12800,3.21445,50.6714
MERU,60110,12800,2.13333,49.2333
FONTENAY-LE-FLEURY,78330,12800,02.05,48.8167
RIVIERE-SALEE,97215,12767,14.5269,-60.9773
AVRILLE,49240,12700,-0.583333,47.5
RONCQ,59223,12700,3.11667,50.75
HARNES,62440,12700,2.9,50.45
BISCHWILLER,67240,12700,7.86667,48.7667
VILLETANEUSE,93430,12700,2.34167,48.9583
WOIPPY,57140,12600,6.15,49.15
NEMOURS,77140,12600,2.7,48.2667
EPINAY-SOUS-SENART,91860,12600,2.51667,48.6833
YZEURE,3400,12500,3.35,46.5667
VALBONNE,6560,12500,7,43.6333
SAINT-PAUL-LES-DAX,40990,12500,-1.05,43.7333
AURAY,56400,12500,-2.98333,47.6667
MONTATAIRE,60160,12500,2.43333,49.2667
AMBOISE,37530,12400,0.983333,47.4167
BISCARROSSE,40600,12400,-1.16667,44.3917
COMINES,59560,12400,3.01667,50.7667
CANET-EN-ROUSSILLON,66140,12400,3.00778,42.7067
SAINT-BREVIN-LES-PINS,44250,12300,-2.16667,47.25
STIRING-WENDEL,57350,12300,6.93333,49.2
SABLE-SUR-SARTHE,72300,12300,-0.333333,47.8333
BARENTIN,76360,12300,0.95,49.55
PROVINS,77160,12300,3.3,48.55
SAINT-FARGEAU-PONTHIERRY,77310,12300,2.54528,48.5333
MOISSAC,82200,12300,1.08333,44.1
ROGNAC,13340,12200,5.23333,43.4833
VIRE,14500,12200,-0.883333,48.8333
L'UNION,31240,12200,1.48333,43.6667
SEYSSINET-PARISET,38170,12200,5.65,45.1667
CHATEAUBRIANT,44110,12200,-1.38333,47.7167
MENDE,48000,12200,3.5,44.5167
FAMECK,57290,12200,6.11667,49.3
SECLIN,59113,12200,3.03333,50.55
SOMAIN,59490,12200,3.28333,50.3667
RIEDISHEIM,68400,12200,7.36667,47.75
FRANCHEVILLE,69340,12200,4.76667,45.7333
ANDRESY,78570,12200,2.06667,48.9833
GRAULHET,81300,12200,2,43.7667
VALENTON,94460,12200,2.46667,48.75
CHAUNY,2300,12100,3.21667,49.6167
TRELAZE,49800,12100,-0.466667,47.45
MERICOURT,62680,12100,2.86667,50.4
NOEUX-LES-MINES,62290,12100,2.66667,50.4833
AUBERGENVILLE,78410,12100,1.85,48.9667
VOISINS-LE-BRETONNEUX,78960,12100,02.05,48.75
ENGHIEN-LES-BAINS,95880,12100,2.31667,48.9667
AURIOL,13390,12000,5.63333,43.3833
BRUAY-SUR-L'ESCAUT,59860,12000,3.53333,50.3833
BULLY-LES-MINES,62160,12000,2.71667,50.4333
THIERS,63300,12000,3.56667,45.85
SAVERNE,67700,12000,7.36667,48.7333
VAIRES-SUR-MARNE,77360,12000,2.65,48.8667
BASSE-TERRE,97100,11915,16.0015,-61.7183
VILLEFRANCHE-DE-ROUERGUE,12200,11900,02.05,44.35
MARLY,59770,11900,3.55,50.35
PONT-SAINTE-MAXENCE,60700,11900,2.6,49.3
LONS,64140,11900,-0.4,43.3167
TRIEL-SUR-SEINE,78510,11900,2,48.9833
TALANT,21240,11800,5,47.3167
VERNOUILLET,28500,11800,1.36667,48.7167
ARCACHON,33120,11800,-1.16355,44.6589
BONNEVILLE,74130,11800,6.41667,46.0833
BOLBEC,76210,11800,0.483333,49.5667
SAINT-CYR-SUR-MER,83270,11800,5.71667,43.1833
MORANGIS,91420,11800,2.33333,48.7
BRAS-PANON,97412,11725,-20.9992,55.6849
LAMBALLE,22400,11700,-2.51667,48.4667
GISORS,27140,11700,1.78333,49.2833
PLOUZANE,29280,11700,-4.61667,48.3833
SAINT-GAUDENS,31800,11700,0.733333,43.1167
SAINTE-LUCE-SUR-LOIRE,44980,11700,-1.5,47.25
ETAPLES,62630,11700,1.65,50.5167
GENAS,69740,11700,5,45.7333
BRIANCON,5100,11600,6.65,44.9
CHATEAUNEUF-LES-MARTIGUES,13220,11600,5.16667,43.3833
RAMONVILLE-SAINT-AGNE,31520,11600,1.46667,43.55
TARNOS,40220,11600,-1.46667,43.5333
GUEBWILLER,68500,11600,7.2,47.9167
OISSEL,76350,11600,1.1,49.3333
YVETOT,76190,11600,0.766667,49.6167
MAROMME,76150,11600,1.03333,49.4667
PETITE-ILE,97429,11566,-21.3534,55.5651
CARROS,6510,11500,7.18333,43.8
AUBENAS,7200,11500,4.38333,44.6167
CASTELNAUDARY,11400,11500,1.95,43.3167
VALENTIGNEY,25700,11500,6.83333,47.4667
LE PONT-DE-CLAIX,38800,11500,5.7,45.1167
SAINT-CLAUDE,39200,11500,5.86667,46.3833
AMILLY,45200,11500,2.77028,47.9731
GRAVELINES,59820,11500,2.125,50.9833
SAINT-MARTIN-BOULOGNE,62280,11500,1.63333,50.7167
SAINT-JUNIEN,87200,11500,0.9,45.8833
BELLEGARDE-SUR-VALSERINE,1200,11400,5.81667,46.1
SAINT-AMAND-MONTROND,18200,11400,2.50555,46.7236
LES PONTS-DE-CE,49130,11400,-0.516667,47.4167
CHATEAU-GONTIER,53200,11400,-0.7,47.8333
MIONS,69780,11400,4.95,45.6667
BRIGNAIS,69530,11400,4.75,45.6667
LA MOTTE-SERVOLEX,73290,11400,5.88333,45.6
SAINT-JULIEN-EN-GENEVOIS,74160,11400,6.08333,46.1333
LA QUEUE-EN-BRIE,94510,11400,2.58333,48.7833
L'ISLE-ADAM,95290,11400,2.23333,49.1167
PASSY,74480,11300,6.68333,45.9167
GAILLARD,74240,11300,6.21667,46.1833
CLAYE-SOUILLY,77410,11300,2.7,48.95
VAUX-LE-PENIL,77000,11300,2.66667,48.5333
ROQUEBRUNE-SUR-ARGENS,83520,11300,6.63333,43.4333
SAINT-ANDRE-LES-VERGERS,10120,11200,04.05,48.2833
VAUVERT,30600,11200,4.28333,43.7
FONSORBES,31470,11200,1.23333,43.5333
SAINT-SAULVE,59880,11200,3.55,50.3667
AUCHEL,62260,11200,2.46667,50.5
OLORON-SAINTE-MARIE,64400,11200,-0.6,43.2
CERNAY,68700,11200,7.16667,47.8167
LE PRADET,83220,11200,6.01667,43.1
PLAN-DE-CUQUES,13380,11100,5.46667,43.35
NOGENT-LE-ROTROU,28400,11100,0.833333,48.3167
QUIMPERLE,29300,11100,-3.55,47.8667
COSNE-COURS-SUR-LOIRE,58200,11100,2.9275,47.4122
SAINT-ESTEVE,66240,11100,2.85,42.7
ALLONNES,72700,11100,0.15,47.9667
COGOLIN,83310,11100,6.53333,43.25
APT,84400,11100,5.4,43.8833
PORTO-VECCHIO,20137,11100,9.27973,41.5909
SAINT-MARTIN-DE-CRAU,13310,11000,4.81667,43.6333
PLOUFRAGAN,22440,11000,-2.78333,48.4833
DINAN,22100,11000,-2.23639,48.4564
DINARD,35800,11000,-2.06667,48.6333
CHAMBRAY-LES-TOURS,37170,11000,0.716667,47.3333
CHANTILLY,60500,11000,2.46667,49.2
LONGUENESSE,62219,11000,2.23333,50.7333
BEAUMONT,63110,11000,3.1,45.75
SOLLIES-PONT,83210,11000,06.05,43.1833
DEMBENI,97660,10923,45.1878,-12.8442
FLORANGE,57190,10900,6.11667,49.3333
OBERNAI,67210,10900,7.48333,48.4667
VILLE-D'AVRAY,92410,10900,2.19167,48.825
GUILHERAND-GRANGES,7500,10800,4.87473,44.9345
IFS,14123,10800,-0.35,49.1333
LE RELECQ-KERHUON,29480,10800,-4.4,48.4
CASTANET-TOLOSAN,31320,10800,1.5,43.5167
SAINT-ORENS-DE-GAMEVILLE,31650,10800,1.53333,43.55
ANDERNOS-LES-BAINS,33510,10800,-1.1,44.7429
VIEUX-CONDE,59690,10800,3.33333,50.4833
SAINT-ANDRE-LEZ-LILLE,59350,10800,3.04389,50.6603
OSTWALD,67540,10800,7.71667,48.55
MONTEUX,84170,10800,5,44.0333
SAINT-REMY-DE-PROVENCE,13210,10700,4.83333,43.7833
LA TRINITE,6340,10600,7.31667,43.75
TOURNON-SUR-RHONE,7300,10600,4.83278,45.0673
ONET-LE-CHATEAU,12850,10600,2.53333,44.3833
SASSENAGE,38360,10600,5.66667,45.2
MAIZIERES-LES-METZ,57210,10600,6.15,49.2167
SAINT-CYPRIEN,66750,10600,3,42.6167
GROS-MORNE,97213,10588,14.7096,-61
AVIRONS,97425,10580,-21.2432,55.334
SEPTEMES-LES-VALLONS,13240,10500,5.36667,43.4
BERNAY,27300,10500,0.6,49.1
MEZE,34140,10500,3.6,43.4167
RIORGES,42153,10500,4.03333,46.0333
PORNICHET,44380,10500,-2.35,47.25
CLERMONT,60600,10500,2.4,49.3833
HOENHEIM,67800,10500,7.75,48.6167
HERICOURT,70400,10500,6.75,47.5833
DUGNY,93440,10500,2.41667,48.95
SAINT-CLAUDE,97120,10467,16.016,-61.7085
TSINGONI,97680,10454,45.107,-12.7897
USSEL,19200,10400,2.31667,45.55
MONTLOUIS-SUR-LOIRE,37270,10400,0.833333,47.3833
TINQUEUX,51430,10400,3.98333,49.25
PONT-DU-CHATEAU,63430,10400,3.25,45.8
GERZAT,63360,10400,3.15,45.8333
ORTHEZ,64300,10400,-0.766667,43.4833
WITTELSHEIM,68310,10400,7.25,47.8167
PARTHENAY,79200,10400,-0.25,46.65
LAVAUR,81500,10400,1.81667,43.7
PERNES-LES-FONTAINES,84210,10400,05.05,44
SAINT-HILAIRE-DE-RIEZ,85270,10400,-1.95,46.7167
JOIGNY,89300,10400,3.4,47.9833
PERSAN,95340,10400,2.26667,49.15
MOUANS-SARTOUX,6370,10300,6.96667,43.6167
SOYAUX,16800,10300,0.2,45.65
MAINVILLIERS,28300,10300,1.46667,48.45
FONDETTES,37230,10300,0.6,47.4
COURRIERES,62710,10300,2.93333,50.45
ERSTEIN,67150,10300,7.66667,48.4333
TARARE,69170,10300,4.43333,45.9
VILLERS-COTTERETS,2600,10200,3.08333,49.25
TRETS,13530,10200,5.68333,43.45
BETTON,35830,10200,-1.65,48.1833
SAINT-JACQUES-DE-LA-LANDE,35136,10200,-1.71667,48.0667
ROCHE-LA-MOLIERE,42230,10200,4.31667,45.4333
OIGNIES,62590,10200,2.98333,50.4667
MONTIGNY-EN-GOHELLE,62640,10200,2.93333,50.4333
DEVILLE-LES-ROUEN,76250,10200,1.03333,49.4667
LIEUSAINT,77127,10200,2.55,48.6333
CARMAUX,81400,10200,2.15,44.05
ARPAJON,91290,10200,2.25,48.5833
EPINAY-SUR-ORGE,91360,10200,2.33333,48.6667
IGNY,91430,10200,2.21667,48.7333
SADA,97640,10195,45.1047,-12.8486
BANDRABOUA,97650,10132,45.12,-12.7019
SAINTE-SAVINE,10300,10100,04.05,48.3
BOURG-DE-PEAGE,26300,10100,05.05,45.0333
LA RICHE,37520,10100,0.65,47.3833
GUIDEL,56520,10100,2.51139,47.7906
SAINT-AVE,56890,10100,-2.75,47.6833
AMNEVILLE,57360,10100,6.15,49.2667
ROMBAS,57120,10100,6.08333,49.25
ANICHE,59580,10100,3.25,50.3333
SALLAUMINES,62430,10100,2.86667,50.4167
LE PORTEL,62480,10100,1.56667,50.7
LA ROCHE-SUR-FORON,74800,10100,6.31667,46.0667
CROISSY-SUR-SEINE,78290,10100,2.13333,48.8667
PANAZOL,87350,10100,1.3,45.8333
LEZIGNAN-CORBIERES,11200,10000,2.76667,43.2
PONT-SAINT-ESPRIT,30130,10000,4.65,44.25
SAINT-JEAN,31240,10000,1.5,43.6667
FIGEAC,46100,10000,2.03333,44.6
DOMBASLE-SUR-MEURTHE,54110,10000,6.35,48.6333
DOUCHY-LES-MINES,59282,10000,3.38333,50.3
LILLERS,62190,10000,2.48333,50.5667
AUBIERE,63170,10000,3.11667,45.75
ARGELES-SUR-MER,66700,10000,3.01667,42.55
MAZAMET,81200,10000,2.4,43.5
LA LONDE-LES-MAURES,83250,10000,6.23333,43.1333
SAINTE-LUCE,97228,9926,14.466,-60.9327
MONDEVILLE,14120,9900,-0.316667,49.1667
SAINT-MAX,54130,9900,6.21667,48.7
JEUMONT,59460,9900,4.1,50.3
BONDUES,59910,9900,3.1,50.7
BRUMATH,67170,9900,7.71667,48.7333
PIERRE-BENITE,69310,9900,4.81667,45.7
VILLEPREUX,78450,9900,2.01667,48.8333
THOUARS,79100,9900,-0.216667,46.9667
CUERS,83390,9900,6.06667,43.2333
VEDENE,84270,9900,4.9,43.9833
VALREAS,84600,9900,4.98333,44.3833
BUXEROLLES,86180,9900,0.483333,46.6167
ORMESSON-SUR-MARNE,94490,9900,2.55,48.7833
PAMANDZI,97610,9892,45.2762,-12.7982
OUANGANI,97670,9834,45.1379,-12.8478
LIMOUX,11300,9800,2.23333,43.0667
CHEVIGNY-SAINT-SAUVEUR,21800,9800,5.13333,47.3
PORTET-SUR-GARONNE,31120,9800,1.41667,43.5167
MARQUETTE-LEZ-LILLE,59520,9800,3.06611,50.6759
ANNOEULLIN,59112,9800,2.93333,50.5333
WAMBRECHIES,59118,9800,03.05,50.6833
LESCAR,64230,9800,-0.416667,43.3333
ALBERT,80300,9800,2.65,50
CARQUEIRANNE,83320,9800,6.08333,43.0833
VIDAUBAN,83550,9800,6.43333,43.4167
LUCON,85400,9800,-1.16667,46.45
GEX,1170,9700,6.06667,46.3333
FOIX,9000,9700,1.6,42.9667
LOUDEAC,22600,9700,-2.75,48.1667
VOREPPE,38340,9700,5.63333,45.3
CONDE-SUR-L'ESCAUT,59163,9700,3.58333,50.45
NEUVILLE-EN-FERRAIN,59960,9700,3.15,50.75
ARQUES,62510,9700,2.28333,50.7333
AIRE-SUR-LA-LYS,62120,9700,2.4,50.6333
BURES-SUR-YVETTE,91440,9700,2.16667,48.7
FOSSES,95470,9700,2.48333,49.1
MACOURIA TONATE,97355,9640,5.01361,-52.4741
QUETIGNY,21800,9600,5.11667,47.3167
FOUESNANT,29170,9600,-4.01667,47.9
REDON,35600,9600,-2.08333,47.65
ANDREZIEUX-BOUTHEON,42160,9600,4.26028,45.5262
CAUDEBEC-LES-ELBEUF,76320,9600,1.03333,49.2833
VILLEBON-SUR-YVETTE,91940,9600,2.25,48.7
DOURDAN,91410,9600,2.01667,48.5333
VILLERUPT,54190,9500,5.93333,49.4667
MARLY,57155,9500,6.14973,49.0612
GOUVIEUX,60270,9500,2.41667,49.1833
CHASSIEU,69680,9500,4.96667,45.75
GRAND-COURONNE,76530,9500,1,49.35
HIRSON,2500,9400,4.08333,49.9167
LONGVIC,21600,9400,5.06667,47.2833
PORTES-LES-VALENCE,26800,9400,4.88333,44.8667
EYBENS,38320,9400,5.75,45.15
LA CHAPELLE-SAINT-MESMIN,45380,9400,1.83333,47.8833
LE PASSAGE,47520,9400,0.616667,44.2
COUTANCES,50200,9400,-1.43333,49.05
JARVILLE-LA-MALGRANGE,54140,9400,6.21667,48.6667
VARENNES-VAUZELLES,58640,9400,3.14639,47.0123
CHAMBLY,60230,9400,2.25,49.1667
LAMORLAYE,60260,9400,2.43333,49.15
ISBERGUES,62330,9400,2.45,50.6167
CORBAS,69960,9400,4.9,45.6667
DARNETAL,76160,9400,1.15,49.45
THORIGNY-SUR-MARNE,77400,9400,2.71667,48.8833
VERNOUILLET,78540,9400,1.98333,48.9667
BONDOUFLE,91070,9400,2.38333,48.6167
VILLECRESNES,94440,9400,2.53333,48.7167
MERY-SUR-OISE,95540,9400,2.2,49.0667
SAINT-ESPRIT,97270,9335,44.2153,0.635489
OUISTREHAM,14150,9300,-0.25,49.2833
SARLAT-LA-CANEDA,24200,9300,1.21667,44.8833
PONTCHATEAU,44160,9300,-2.08333,47.4333
HAGONDANGE,57300,9300,6.16667,49.25
MOLSHEIM,67120,9300,7.48333,48.5333
FEYZIN,69320,9300,4.85,45.6667
LA FERTE-BERNARD,72400,9300,0.666667,48.1833
LILLEBONNE,76170,9300,0.55,49.5167
CHANTELOUP-LES-VIGNES,78570,9300,2.03333,48.9833
VAUCLIN,97280,9229,14.5499,-60.8581
BIOT,6410,9200,7.1,43.6333
GIGNAC-LA-NERTHE,13180,9200,5.23333,43.3917
PELISSANNE,13330,9200,5.15,43.6333
TONNEINS,47400,9200,0.316667,44.3833
LEERS,59115,9200,3.25,50.6833
SAINT-GERMAIN-LES-ARPAJON,91180,9200,2.25,48.6
SAINT-DOULCHARD,18230,9100,2.35,47.1
REVEL,31250,9100,2,43.4667
BIGANOS,33380,9100,-0.983333,44.65
PACE,35740,9100,-1.76667,48.15
MARCK,62730,9100,1.95,50.95
PARAY-LE-MONIAL,71600,9100,4.11667,46.45
PETIT-COURONNE,76650,9100,1.0275,49.3856
GONFREVILLE-L'ORCHER,76700,9100,0.233333,49.5
CROSNE,91560,9100,2.45,48.7167
FLEURY-MEROGIS,91700,9100,2.36667,48.6333
EZANVILLE,95460,9100,2.36667,49.0333
MIRIBEL,1700,9000,4.95306,45.8245
DOMERAT,3410,9000,2.53333,46.35
FONTAINE-LES-DIJON,21121,9000,5.01917,47.3434
LIVRON-SUR-DROME,26250,9000,4.85,44.7667
LANDIVISIAU,29400,9000,-4.06667,48.5167
LEOGNAN,33850,9000,-0.6,44.7333
SAINT-ANDRE-DE-CUBZAC,33240,9000,-0.441667,44.9917
BLAIN,44130,9000,-1.75,47.4833
ESCAUDAIN,59124,9000,3.35,50.3333
SAINT-VALLIER,71230,9000,4.36667,46.6333
CHAMONIX-MONT-BLANC,74400,9000,6.86667,45.9167
LA FERTE-SOUS-JOUARRE,77260,9000,3.13333,48.95
LE BEAUSSET,83330,9000,5.8,43.2
LE LUC,83340,9000,6.31667,43.3833
LOUVRES,95380,9000,2.5,49.0333
MANA,97360,8952,5.6683,-53.7782
SAINT BARTHELEMY,97133,8938,-62.8333,17.9167
FUVEAU,13710,8900,5.56667,43.45
SAINT-BARTHELEMY-D'ANJOU,49124,8900,-0.5,47.4667
MAXEVILLE,54320,8900,6.16667,48.7167
ROUVROY,62320,8900,2.9,50.3833
BEUVRY,62660,8900,2.68333,50.5167
LIBERCOURT,62820,8900,3.01667,50.4833
MAGNY-LES-HAMEAUX,78114,8900,2.06667,48.7333
LORGUES,83510,8900,6.36667,43.4833
LE MUY,83490,8900,6.55,43.4667
BEAUMONT-SUR-OISE,95260,8900,2.28333,49.1333
BELLEY,1300,8800,5.68333,45.7667
AYTRE,17440,8800,-1.1,46.1333
LE TAILLAN-MEDOC,33320,8800,-0.666667,44.9
SAINT-JEAN-DE-VEDAS,34430,8800,3.83333,43.5833
VILLENEUVE-LES-MAGUELONE,34750,8800,3.86084,43.5323
QUEVEN,56530,8800,-3.41667,47.7833
PLOERMEL,56800,8800,-2.4,47.9333
AULNOYE-AYMERIES,59620,8800,3.83333,50.2
CRAPONNE,69290,8800,4.71667,45.7333
BANDOL,83150,8800,5.75,43.1333
BEAUCHAMP,95250,8800,2.2,49.0167
TROIS-RIVIERES,97114,8755,15.9943,-61.6323
LAMBESC,13410,8700,5.26667,43.65
PONT-AUDEMER,27500,8700,0.516667,49.35
MARGUERITTES,30320,8700,4.45,43.85
AUTERIVE,31190,8700,1.48333,43.35
DEOLS,36130,8700,1.7,46.8333
SAINT-PIERRE-DU-MONT,40280,8700,-0.516667,43.8833
MONISTROL-SUR-LOIRE,43120,8700,4.16667,45.2833
PITHIVIERS,45300,8700,2.25,48.1667
ONNAING,59264,8700,3.6,50.3833
MERVILLE,59660,8700,2.63333,50.6333
MEULAN-EN-YVELINES,78250,8700,1.9,49.0167
GERARDMER,88400,8700,6.88333,48.0667
MARIN,97290,8690,14.4733,-60.8668
BELLERIVE-SUR-ALLIER,3700,8600,3.4,46.1167
PRIVAS,7000,8600,4.6,44.7333
CASTELGINEST,31780,8600,1.43333,43.7
CROLLES,38190,8600,5.88333,45.2833
CABESTANY,66330,8600,2.93333,42.6833
GRIGNY,69520,8600,4.78333,45.6167
DIGOIN,71160,8600,3.98333,46.4833
VAUCRESSON,92420,8600,2.175,48.8333
PORT-SAINT-LOUIS-DU-RHONE,13230,8500,4.8,43.3833
SAINT-PAUL-TROIS-CHATEAUX,26130,8500,4.76667,44.35
PEROLS,34470,8500,3.95,43.5667
SAINT-GELY-DU-FESC,34980,8500,3.8,43.7
UNIEUX,42240,8500,4.26667,45.4
JARNY,54800,8500,5.88333,49.15
BEHREN-LES-FORBACH,57460,8500,6.95,49.1667
SAINT-LAURENT-DE-LA-SALANQUE,66250,8500,2.98333,42.7667
PFASTATT,68120,8500,7.3,47.7833
SAINT-JEAN-DE-MAURIENNE,73300,8500,6.35,45.2833
MARIPASOULA,97370,8473,3.64367,-54.0304
SAINT-GENIS-POUILLY,1630,8400,6.01667,46.25
ROQUEVAIRE,13360,8400,5.6,43.35
VELAUX,13880,8400,5.26667,43.5167
FALAISE,14700,8400,-0.2,48.9
COULOUNIEIX-CHAMIERS,24660,8400,0.7,45.1667
LE HAILLAN,33185,8400,-0.683333,44.8667
PEZENAS,34120,8400,3.41667,43.45
LA GRANDE-MOTTE,34280,8400,4.08333,43.5667
VEAUCHE,42340,8400,4.28333,45.55
LARMOR-PLAGE,56260,8400,-3.38333,47.7
RIVESALTES,66600,8400,2.86667,42.7667
MEYTHET,74960,8400,6.1,45.9333
SAINT-PIERRE-LES-ELBEUF,76320,8400,01.05,49.2667
BIHOREL,76420,8400,1.11667,49.4667
BOUGIVAL,78380,8400,2.13333,48.8667
GROSLAY,95410,8400,2.35,48.9833
LES ANDELYS,27700,8300,1.41667,49.25
LES ANGLES,30133,8300,4.76667,43.9545
SAINT-LYS,31470,8300,1.2,43.5167
VILLENEUVE-TOLOSANE,31270,8300,1.33333,43.5167
SAINT-GREGOIRE,35760,8300,-1.68333,48.15
SAINT-JEAN-LE-BLANC,45650,8300,1.91667,47.9
ORCHIES,59310,8300,3.23333,50.4667
LINSELLES,59126,8300,3.08333,50.7333
L'AIGLE,61300,8300,0.633333,48.75
WINGLES,62410,8300,2.85,50.4833
LEMPDES,63370,8300,3.21667,45.7667
IRIGNY,69540,8300,4.81667,45.6667
DARDILLY,69570,8300,4.73333,45.8
LURE,70200,8300,6.5,47.6833
BREUILLET,91650,8300,2.16667,48.5667
CABRIES,13480,8200,5.38333,43.4333
HONFLEUR,14600,8200,0.233333,49.4167
UZES,30700,8200,4.41667,44.0167
CHANTEPIE,35135,8200,-1.61667,48.0833
AVRANCHES,50300,8200,-1.36667,48.6833
LANGRES,52200,8200,5.33333,47.8667
MALZEVILLE,54220,8200,6.2,48.7167
ROMAGNAT,63540,8200,3.1,45.7333
URRUGNE,64122,8200,-1.7,43.3583
NOTRE-DAME-DE-GRAVENCHON,76330,8200,0.583333,49.4833
TOURNAN-EN-BRIE,77220,8200,2.76667,48.7333
GOLBEY,88190,8200,6.43333,48.2
SAINT-AFFRIQUE,12400,8100,2.88722,43.9592
VENELLES,13770,8100,5.48333,43.6
PONT-L'ABBE,29120,8100,-4.21667,47.8667
LE GRAU-DU-ROI,30240,8100,4.14167,43.5333
JANZE,35150,8100,-1.5,47.9667
CHINON,37500,8100,0.25,47.1667
VIF,38450,8100,5.66667,45.05
CHAMPAGNOLE,39300,8100,5.91667,46.75
VALLET,44330,8100,-1.26667,47.1667
MONT-SAINT-MARTIN,54350,8100,5.78333,49.5333
SENE,56860,8100,-2.75,47.6167
MOYEUVRE-GRANDE,57250,8100,6.03333,49.25
CAPPELLE-LA-GRANDE,59180,8100,2.35,51
EVIAN-LES-BAINS,74500,8100,6.58333,46.3833
HARFLEUR,76700,8100,0.2,49.5
SAINT-AUBIN-LES-ELBEUF,76410,8100,1.01667,49.3
JOUY-EN-JOSAS,78350,8100,2.16667,48.7667
PERONNE,80200,8100,2.93333,49.9333
CHANTONNAY,85110,8100,-1.05,46.6833
GOYAVE,97128,8065,16.1335,-61.5766
CHIRONGUI,97620,8047,45.1508,-12.935
PETIT-CANAL,97131,8038,16.3879,-61.4534
LANCON-PROVENCE,13680,8000,5.13333,43.5833
PIBRAC,31820,8000,1.3,43.6167
VERN-SUR-SEICHE,35770,8000,-1.6,48.05
ROUSSILLON,38150,8000,4.81667,45.3667
CHECY,45430,8000,2.01667,47.9
BILLY-MONTIGNY,62420,8000,2.9,50.4167
BAGNERES-DE-BIGORRE,65200,8000,0.15,43.0667
THANN,68800,8000,7.08333,47.8167
CHAPONOST,69630,8000,4.75,45.7
DAMMARTIN-EN-GOELE,77230,8000,2.68333,49.05
CESSON,77240,8000,2.6,48.5667
NOISY-LE-ROI,78590,8000,2.06667,48.85
SAINT-REMY-LES-CHEVREUSE,78470,8000,2.08333,48.7
MAULEON,79700,8000,-0.748333,46.9236
LA FARLEDE,83210,8000,6.03333,43.1667
THAON-LES-VOSGES,88150,8000,6.41667,48.25
REMIREMONT,88200,8000,6.58333,48.0167
GOURBEYRE,97113,7949,15.9952,-61.7078
LE TEIL,7400,7900,4.68333,44.55
AIGUES-MORTES,30220,7900,4.19167,43.5667
LEGUEVIN,31490,7900,1.25,43.6
COUTRAS,33230,7900,-0.133333,45.0333
BALLAN-MIRE,37510,7900,0.616667,47.3333
SAINT-MARCELLIN,38160,7900,5.31667,45.15
LA RICAMARIE,42150,7900,4.36667,45.4
VILLARS,42390,7900,4.35,45.4667
BASSE-GOULAINE,44115,7900,-1.43333,47.2167
INGRE,45140,7900,1.81667,47.9167
CHATEAUNEUF-SUR-LOIRE,45110,7900,2.23333,47.8667
HOMBOURG-HAUT,57470,7900,6.76667,49.1333
PERENCHIES,59840,7900,2.96667,50.6667
LA CHAPELLE-D'ARMENTIERES,59930,7900,2.9,50.6833
MARGNY-LES-COMPIEGNE,60280,7900,2.81667,49.4333
WISSEMBOURG,67160,7900,7.95,49.0333
GRETZ-ARMAINVILLIERS,77220,7900,2.73333,48.7333
LE THOR,84250,7900,5,43.9333
SAINT-JEAN-DE-MONTS,85160,7900,-2.06667,46.7833
COUZEIX,87270,7900,1.23333,45.8667
BANDRELE,97620,7885,45.1944,-12.9143
MTSAMBORO,97630,7805,45.0676,-12.7008
DIVONNE-LES-BAINS,1220,7800,6.13333,46.3667
FERNEY-VOLTAIRE,1210,7800,6.11667,46.25
PEYMEINADE,6530,7800,6.88333,43.6333
CASSIS,13260,7800,5.53333,43.2167
SAINT-CHAMAS,13250,7800,5.03333,43.55
TONNAY-CHARENTE,17430,7800,-0.9,45.95
AUXONNE,21130,7800,5.38333,47.2
PAIMPOL,22500,7800,-3.05,48.7667
CREST,26400,7800,5.03333,44.7333
PLABENNEC,29860,7800,-4.43333,48.5
AUCAMVILLE,31140,7800,1.43056,43.6687
SAINT-LOUBES,33450,7800,-0.433333,44.9167
MOIRANS,38430,7800,5.56667,45.3333
CAPBRETON,40130,7800,-1.43333,43.6333
ESSEY-LES-NANCY,54270,7800,6.23333,48.7
AUREILHAN,65800,7800,0.1,43.25
GUEUGNON,71130,7800,4.06667,46.6
SAINT-SULPICE,81370,7800,1.68639,43.7742
AIZENAY,85190,7800,-1.61667,46.7333
SAINT-PIERRE-DU-PERRAY,91280,7800,2.5,48.6167
PIERRELAYE,95480,7800,2.16667,49.0167
VIEUX-HABITANTS,97119,7703,16.0535,-61.7636
RETHEL,8300,7700,4.36667,49.5167
CROZON,29160,7700,-4.48333,48.25
ERGUE-GABERIC,29500,7700,-4.03333,48
CARHAIX-PLOUGUER,29270,7700,-3.58333,48.2833
SEYSSES,31600,7700,1.31667,43.5
MARSEILLAN,34340,7700,3.53333,43.35
LE RHEU,35650,7700,-1.8,48.1
CHARVIEU-CHAVAGNEUX,38230,7700,5.16389,45.7456
VIZILLE,38220,7700,5.76667,45.0833
LA TOUR-DU-PIN,38110,7700,5.45,45.5667
BEAUGENCY,45190,7700,1.63333,47.7833
TOMBLAINE,54510,7700,6.21667,48.6833
WAZIERS,59119,7700,3.11667,50.3833
FRESNES-SUR-ESCAUT,59970,7700,3.58333,50.4333
NIEPPE,59850,7700,2.83333,50.7
WAVRIN,59136,7700,2.91667,50.5667
ACHICOURT,62217,7700,2.76667,50.2667
CEBAZAT,63118,7700,3.1,45.8333
CERET,66400,7700,2.75,42.4833
GLEIZE,69400,7700,4.68333,45.9833
BOURG-SAINT-MAURICE,73700,7700,6.76667,45.6167
SAINTE-ADRESSE,76310,7700,0.083333,49.5
QUINCY-SOUS-SENART,91480,7700,2.53333,48.6667
MARCOUSSIS,91460,7700,2.23333,48.6333
LE PLESSIS-BOUCHARD,95130,7700,2.23333,49
TROIS-ILETS,97229,7627,14.5275,-61.0383
LA COLLE-SUR-LOUP,6480,7600,7.1,43.6833
EGUILLES,13510,7600,5.36667,43.5667
TREGUEUX,22950,7600,1.26195,48.4906
TULLINS,38210,7600,5.48333,45.3
CLAIX,38640,7600,5.66667,45.1167
SORBIERS,42290,7600,4.45,45.4833
FEURS,42110,7600,4.23333,45.75
TREILLIERES,44119,7600,-1.63333,47.3333
SAINT-PHILBERT-DE-GRAND-LIEU,44310,7600,-1.63333,47.0333
SAINT-NICOLAS-DE-PORT,54210,7600,6.3,48.6333
AUBY,59950,7600,03.05,50.4167
BARLIN,62620,7600,2.61667,50.45
HOUDAIN,62150,7600,2.53333,50.45
BOUCAU,64340,7600,-1.5,43.5333
ELNE,66200,7600,2.96667,42.6
WINTZENHEIM,68920,7600,7.28333,48.0667
NANGIS,77370,7600,3,48.55
BEYNES,78650,7600,1.86667,48.85
ENTRAIGUES-SUR-LA-SORGUE,84320,7600,4.92667,44.0031
BOUILLANTE,97132,7545,16.172,-61.7263
LORRAIN,97214,7526,14.8329,-61.0556
SALAZIE,97433,7510,-21.0269,55.5391
REVIN,8500,7500,4.63333,49.9333
SAINT-JEAN-D'ANGELY,17400,7500,-0.516667,45.95
GUINGAMP,22200,7500,-3.15,48.55
THOUARE-SUR-LOIRE,44470,7500,-1.45,47.2667
ANCENIS,44150,7500,-1.16667,47.3667
DOUE-LA-FONTAINE,49700,7500,-0.283333,47.2
SARZEAU,56370,7500,-2.76667,47.5333
TALANGE,57525,7500,6.18333,49.25
HETTANGE-GRANDE,57330,7500,6.15,49.4
HOUPLINES,59116,7500,2.91667,50.7
MAZINGARBE,62670,7500,2.7,50.4667
BELLEVILLE,69220,7500,4.75,46.1083
LUXEUIL-LES-BAINS,70300,7500,6.38333,47.8167
MONTEVRAIN,77144,7500,2.75,48.8667
LESIGNY,77150,7500,2.61667,48.7333
SAINT-MAIXENT-L'ECOLE,79400,7500,-0.2,46.4167
MORIERES-LES-AVIGNON,84310,7500,4.90473,43.9417
ISLE,87170,7500,1.21667,45.8167
BORGO,20290,7500,9.42751,42.5539
RUELLE-SUR-TOUVRE,16600,7400,0.233333,45.6833
GUILERS,29820,7400,-4.56667,48.4333
GRENADE,31330,7400,1.29361,43.7722
LANGON,33210,7400,-0.25,44.55
PAREMPUYRE,33290,7400,-0.583333,44.95
LEGE-CAP-FERRET,33950,7400,0.853612,44.7931
CLERMONT-L'HERAULT,34800,7400,3.43333,43.6167
MABLY,42300,7400,4.06667,46.0833
WIMEREUX,62930,7400,1.61667,50.7667
VENDIN-LE-VIEIL,62880,7400,2.86667,50.4667
MOURENX,64150,7400,-0.6,43.3833
THUIR,66300,7400,2.75,42.6333
NEUVILLE-SUR-SAONE,69250,7400,4.85,45.8667
COULAINES,72190,7400,0.2,48.0167
VILLE-LA-GRAND,74100,7400,6.25,46.2
EU,76260,7400,1.41667,50.05
LE POIRE-SUR-VIE,85170,7400,-1.51667,46.7667
MIGENNES,89400,7400,3.51667,47.9667
ECOUEN,95440,7400,2.38333,49.0167
SAINT-PRIX,95390,7400,2.26667,49.0167
MEXIMIEUX,1800,7300,5.2,45.9
SISTERON,4200,7300,5.93333,44.2
SAINT-PERAY,7130,7300,4.83333,44.95
BOURG-SAINT-ANDEOL,7700,7300,4.65,44.3667
SAUSSET-LES-PINS,13960,7300,5.11667,43.3333
MALEMORT-SUR-CORREZE,19360,7300,1.55,45.1667
PERROS-GUIREC,22700,7300,-3.45,48.8167
SAINT-RENAN,29290,7300,-4.61667,48.4333
FROUZINS,31270,7300,1.31667,43.5167
LODEVE,34700,7300,3.31667,43.7167
LE CRES,34920,7300,3.93333,43.65
VILLARD-BONNOT,38190,7300,5.88333,45.2333
PONTCHARRA,38530,7300,6.01667,45.4333
LES SORINIERES,44840,7300,-1.53333,47.15
NORT-SUR-ERDRE,44390,7300,-1.5,47.4333
LANGUIDIC,56440,7300,-3.16667,47.8333
UCKANGE,57270,7300,6.15,49.3
AULNOY-LEZ-VALENCIENNES,59300,7300,3.53,50.3314
PIA,66380,7300,2.91667,42.75
SOULTZ-HAUT-RHIN,68360,7300,7.23333,47.8833
EMERAINVILLE,77184,7300,2.61667,48.8167
LOUVECIENNES,78430,7300,2.11667,48.8667
BORMES-LES-MIMOSAS,83230,7300,6.33333,43.15
AVALLON,89200,7300,3.9,47.4833
BALLANCOURT-SUR-ESSONNE,91610,7300,2.38556,48.5256
LAGORD,17140,7200,-1.13333,46.1833
CONDOM,32100,7200,0.366667,43.9667
BAIN-DE-BRETAGNE,35470,7200,-1.68333,47.8333
GUICHEN,35580,7200,-1.8,47.9667
SAINT-VINCENT-DE-TYROSSE,40230,7200,-1.3,43.6667
TRIGNAC,44570,7200,-2.18333,47.3167
SAVENAY,44260,7200,-1.95,47.3667
SAINT-DENIS-EN-VAL,45560,7200,1.95,47.8833
VALOGNES,50700,7200,-1.46667,49.5167
TETEGHEM,59229,7200,2.43333,51.0167
FEIGNIES,59750,7200,3.91667,50.3
LIANCOURT,60140,7200,2.46667,49.3333
DIVION,62460,7200,2.5,50.4667
BOMPAS,66430,7200,2.93333,42.7333
SOUFFELWEYERSHEIM,67460,7200,7.73333,48.6333
LA RAVOIRE,73490,7200,5.96667,45.55
SAINT-GILLES-CROIX-DE-VIE,85800,7200,-1.93944,46.6983
LA VILLE-DU-BOIS,91620,7200,2.26667,48.65
PARAY-VIEILLE-POSTE,91550,7200,2.36667,48.7167
SOISY-SUR-SEINE,91450,7200,2.45,48.65
BESSANCOURT,95550,7200,2.21667,49.0333
TROIS-BASSINS,97434,7121,-21.1059,55.2952
NYONS,26110,7100,5.13333,44.3667
GAILLON,27600,7100,1.33333,49.1667
MORDELLES,35310,7100,-1.85,48.0667
SOUSTONS,40140,7100,-1.31667,43.75
LA FERTE-SAINT-AUBIN,45240,7100,1.93333,47.7167
EVRON,53600,7100,-0.4,48.1667
NEUVES-MAISONS,54230,7100,6.1,48.6167
GUENANGE,57310,7100,6.18333,49.3
LE CATEAU-CAMBRESIS,59360,7100,3.54111,50.1053
QUESNOY-SUR-DEULE,59890,7100,3,50.7167
LEFOREST,62790,7100,3.06667,50.4333
GEISPOLSHEIM,67400,7100,7.65,48.5167
ENSISHEIM,68190,7100,7.35,47.8667
NOTRE-DAME-DE-BONDEVILLE,76960,7100,01.05,49.4833
SERRIS,77700,7100,2.78333,48.85
LOUDUN,86200,7100,0.066667,47
SAINT-GERMAIN-LES-CORBEIL,91250,7100,2.48333,48.6167
L'ILE-SAINT-DENIS,93450,7100,2.33333,48.9333
CHICONI,97670,7048,45.1127,-12.8364
POINTE-NOIRE,97116,7006,16.2317,-61.7893
CARNOUX-EN-PROVENCE,13470,7000,5.56445,43.2564
LA COURONNE,16400,7000,0.1,45.6167
SAINT-YRIEIX-SUR-CHARENTE,16710,7000,0.116667,45.6833
LANGUEUX,22360,7000,-2.71667,48.5
SAINT-POL-DE-LEON,29250,7000,-3.98333,48.6833
ROSPORDEN,29140,7000,-3.83333,47.9667
LAUNAGUET,31140,7000,1.45,43.6833
L'ISLE-JOURDAIN,32600,7000,1.08333,43.6167
THORIGNE-FOUILLARD,35235,7000,0.420279,48.1598
CHARTRES-DE-BRETAGNE,35131,7000,-1.7,48.05
SEYSSINS,38180,7000,5.68333,45.15
VINEUIL,41350,7000,1.38333,47.5833
LE COTEAU,42120,7000,4.08333,46.0333
CHEMILLE,49120,7000,-0.716667,47.2167
SAINT-BERTHEVIN,53940,7000,-0.825833,48.0684
NOYELLES-SOUS-LENS,62221,7000,2.86667,50.4333
AMBERT,63600,7000,3.75,45.55
JURANCON,64110,7000,-0.383333,43.3
UGINE,73400,7000,6.41667,45.75
VERT-SAINT-DENIS,77240,7000,2.61667,48.5667
SAINT-JUERY,81160,7000,2.7,43.9167
SAINT-BENOIT,86280,7000,0.333333,46.55
SAINT-YRIEIX-LA-PERCHE,87500,7000,1.2,45.5167
NEUFCHATEAU,88300,7000,5.7,48.35
CONTES,6390,6900,7.31667,43.8167
LUISANT,28600,6900,1.48333,48.4167
MOELAN-SUR-MER,29350,6900,-3.63333,47.8167
ROCHEFORT-DU-GARD,30650,6900,4.68333,43.9667
CARBON-BLANC,33560,6900,-0.5,44.8833
LE BLANC,36300,6900,1.06667,46.6333
MONTS,37260,6900,0.616667,47.2833
MIMIZAN,40200,6900,-1.23333,44.2
YSSINGEAUX,43200,6900,4.11667,45.1333
SAUTRON,44880,6900,-1.66667,47.2667
SAINT-JULIEN-DE-CONCELLES,44450,6900,-1.38333,47.25
NERAC,47600,6900,0.35,44.1333
JOEUF,54240,6900,6.01667,49.2333
QUESTEMBERT,56230,6900,-2.46667,47.6667
BEUVRAGES,59192,6900,3.5,50.3833
SCIONZIER,74950,6900,6.56667,46.05
PUGET-SUR-ARGENS,83480,6900,6.68333,43.45
CHAUVIGNY,86300,6900,0.65,46.5667
AUVERS-SUR-OISE,95760,6900,2.16667,49.0667
SAINTE-ROSE,97439,6806,0,0
MONTLUEL,1120,6800,05.05,45.85
TREVOUX,1600,6800,4.76667,45.9333
COMMENTRY,3600,6800,2.75,46.2833
SAINT-JULIEN-LES-VILLAS,10800,6800,4.1,48.2667
PERIGNY,17180,6800,-1.08333,46.15
MEHUN-SUR-YEVRE,18500,6800,2.21667,47.15
TRELISSAC,24750,6800,0.783333,45.1833
LESNEVEN,29260,6800,-4.31667,48.5667
TREGUNC,29910,6800,-3.85,47.85
ARTIGUES-PRES-BORDEAUX,33370,6800,-0.516667,44.85
MARTIGNAS-SUR-JALLE,33127,6800,-0.766667,44.8333
MONTREUIL-JUIGNE,49460,6800,-0.611944,47.5284
LONGUE-JUMELLES,49160,6800,-0.108056,47.3781
CHAMPIGNEULLES,54250,6800,6.16667,48.7333
THEIX,56450,6800,-2.66667,47.6333
CAUDAN,56850,6800,-3.33333,47.8167
PLUVIGNER,56330,6800,-3.01667,47.7667
LOUVROIL,59720,6800,3.96667,50.2667
LOOS-EN-GOHELLE,62750,6800,2.78333,50.45
CHARNAY-LES-MACON,71850,6800,4.78333,46.3
BONSECOURS,76240,6800,1.13333,49.4333
LE MESNIL-ESNARD,76240,6800,1.15,49.4167
TALMONT-SAINT-HILAIRE,85440,6800,0.381668,46.4673
LISSES,91090,6800,2.41667,48.6
VILLEMOISSON-SUR-ORGE,91360,6800,2.31667,48.6667
CORTE,20250,6800,9.15056,42.3056
APATOU,97317,6704,5.1538,-54.342
LAGNIEU,1150,6700,5.35,45.9
LA GAUDE,6610,6700,7.15,43.7167
GIVET,8600,6700,4.81667,50.1333
LAVELANET,9300,6700,1.85,42.9333
SAINT-FLORENT-SUR-CHER,18400,6700,2.25,46.9833
LA SALVETAT-SAINT-GILLES,31880,6700,1.27139,43.5762
SAINT-JEAN-D'ILLAC,33127,6700,-0.783333,44.8167
LIFFRE,35340,6700,-1.5,48.2167
BRIOUDE,43100,6700,3.4,45.3
CLISSON,44190,6700,-1.28333,47.0833
BEAUPREAU,49600,6700,-1,47.2
FROUARD,54390,6700,6.13333,48.7667
LUDRES,54710,6700,6.16667,48.6167
PETITE-ROSSELLE,57540,6700,6.83333,49.2
BOURBOURG,59630,6700,2.2,50.95
CUINCY,59553,6700,03.05,50.3833
CIBOURE,64500,6700,-1.66667,43.3833
LE SOLER,66270,6700,2.8,42.6833
BARR,67140,6700,7.45,48.4
BLANZY,71450,6700,4.38333,46.7
GARGENVILLE,78440,6700,1.81667,49
CAVALAIRE-SUR-MER,83240,6700,6.53333,43.1667
RAON-L'ETAPE,88110,6700,6.85,48.4
LONGPONT-SUR-ORGE,91310,6700,2.28333,48.6333
SAINT-GIRONS,9200,6600,1.15,42.9833
SAINT-FLOUR,15100,6600,3.09278,45.0337
BOULAZAC,24750,6600,0.772222,45.1712
BASSENS,33530,6600,-0.516667,44.9
MIOS,33380,6600,-0.933333,44.6
BEDARIEUX,34600,6600,3.15,43.6167
SERIGNAN,34410,6600,3.28333,43.2833
LE PEAGE-DE-ROUSSILLON,38550,6600,4.8,45.3667
DOMENE,38420,6600,5.83333,45.2
SAINT-ETIENNE-DE-MONTLUC,44360,6600,-1.78333,47.2667
SEGRE,49500,6600,-0.866667,47.6833
SAINT-MACAIRE-EN-MAUGES,49450,6600,-1,47.1167
GRENAY,62160,6600,2.73333,50.45
FOUQUIERES-LES-LENS,62740,6600,2.91667,50.4333
PRADES,66500,6600,2.43333,42.6167
FAVERGES,74210,6600,6.3,45.75
LE MESNIL-SAINT-DENIS,78320,6600,1.96667,48.7333
AUSSILLON,81200,6600,2.36667,43.4833
COURDIMANCHE,95800,6600,2,49.0333
LA FARE-LES-OLIVIERS,13580,6500,5.18333,43.55
SAINT-VICTORET,13730,6500,5.23333,43.4167
SAUJON,17600,6500,-0.916667,45.6667
MORTEAU,25500,6500,6.61667,47.0667
CHABEUIL,26120,6500,5.01667,44.9
VERNEUIL-SUR-AVRE,27130,6500,0.933333,48.7333
SAINT-CHRISTOL-LES-ALES,30380,6500,4.08333,44.0833
JUVIGNAC,34990,6500,3.8,43.6167
LOCHES,37600,6500,1,47.1333
VARCES-ALLIERES-ET-RISSET,38760,6500,5.68195,45.0867
LA TALAUDIERE,42350,6500,4.43333,45.4833
DONGES,44480,6500,-2.06667,47.3
MONTOIR-DE-BRETAGNE,44550,6500,-2.15,47.3333
TERVILLE,57180,6500,6.15,49.35
TRITH-SAINT-LEGER,59125,6500,3.48333,50.3167
LALLAING,59167,6500,3.16667,50.3833
ECKBOLSHEIM,67201,6500,7.68333,48.5833
HUNINGUE,68330,6500,7.58333,47.6
LA MULATIERE,69350,6500,4.8,45.7333
OTHIS,77280,6500,2.68333,49.0833
CHAMPAGNE-SUR-SEINE,77430,6500,2.8,48.4
LE PERRAY-EN-YVELINES,78610,6500,1.85,48.7
DOULLENS,80600,6500,2.35,50.15
CAUSSADE,82300,6500,1.53333,44.1667
MONTLHERY,91310,6500,2.26667,48.6333
BOUNI,97620,6402,45.0799,-12.9089
PEGOMAS,6580,6400,6.93333,43.6
EYGUIERES,13430,6400,5.03333,43.7
SAINT-PIERRE-D'OLERON,17310,6400,-1.31667,45.95
LE TEICH,33470,6400,-1.01667,44.6333
BALARUC-LES-BAINS,34540,6400,3.66667,43.4333
CHATEAUGIRON,35410,6400,-1.5,48.05
SAINTE-LIVRADE-SUR-LOT,47110,6400,0.6,44.4
BETHENY,51450,6400,04.05,49.2833
HOMECOURT,54310,6400,5.98333,49.2333
COMMERCY,55200,6400,5.58333,48.75
BRECH,56400,6400,-2.98333,47.7167
ALGRANGE,57440,6400,06.05,49.35
LESQUIN,59810,6400,3.11667,50.5833
HERSIN-COUPIGNY,62530,6400,2.65,50.45
SAINT-DIDIER-AU-MONT-D'OR,69370,6400,4.8,45.8
LOUHANS,71500,6400,5.21667,46.6333
REIGNIER-ESERY,74930,6400,6.26667,46.1333
VETRAZ-MONTHOUX,74100,6400,6.26667,46.1667
SAINT-THIBAULT-DES-VIGNES,77400,6400,2.68333,48.8667
LE MESNIL-LE-ROI,78600,6400,2.12667,48.9367
CORBIE,80800,6400,2.5,49.9167
MONTMORILLON,86500,6400,0.866667,46.4333
BOUSSY-SAINT-ANTOINE,91800,6400,2.53333,48.6833
LINAS,91310,6400,2.26667,48.6333
ITTEVILLE,91760,6400,2.33333,48.5167
LIMOURS,91470,6400,2.08333,48.65
BIGUGLIA,20620,6400,9.42001,42.627
M'TSANGAMOUJI,97650,6314,45.0867,-12.7617
EMBRUN,5200,6300,6.5,44.5667
ROQUEFORT-LES-PINS,6330,6300,7.05084,43.6656
NOUZONVILLE,8700,6300,4.75,49.8167
SENAS,13560,6300,5.08333,43.75
LA PENNE-SUR-HUVEAUNE,13821,6300,5.51667,43.2833
CARRY-LE-ROUET,13620,6300,5.15,43.3333
SURGERES,17700,6300,-0.75,46.1
SAINT-APOLLINAIRE,21850,6300,5.08333,47.3333
PLOUGUERNEAU,29880,6300,-4.5,48.6
GOUESNOU,29850,6300,-4.46667,48.45
FLEURANCE,32500,6300,0.666667,43.8333
LE LOROUX-BOTTEREAU,44430,6300,-1.35,47.25
VILLEMANDEUR,45700,6300,2.7,47.9833
CHALONNES-SUR-LOIRE,49290,6300,-0.766667,47.35
LOON-PLAGE,59279,6300,2.21667,50.9833
FONTAINES-SUR-SAONE,69270,6300,4.85,45.8333
POISY,74330,6300,6.06667,45.9167
LES ESSARTS-LE-ROI,78690,6300,1.9,48.7167
EPONE,78680,6300,1.81667,48.95
VILLEFRANCHE-SUR-MER,6230,6200,7.31667,43.7
DECAZEVILLE,12300,6200,2.25,44.55
TERRASSON-LAVILLEDIEU,24120,6200,1.30194,45.1308
BELLEGARDE,30127,6200,4.51667,43.75
FABREGUES,34690,6200,3.76667,43.55
MONTFORT-SUR-MEU,35160,6200,-1.96667,48.1333
LA VERPILLIERE,38290,6200,5.15,45.6333
SAINT-ISMIER,38330,6200,5.83333,45.25
SAINT-JEAN-BONNEFONDS,42650,6200,4.45,45.45
SUCE-SUR-ERDRE,44240,6200,0.470557,47.3448
CORMONTREUIL,51350,6200,04.05,49.2167
GUER,56380,6200,-2.11667,47.9
ROOST-WARENDIN,59286,6200,3.08333,50.4167
CHATEL-GUYON,63140,6200,3.06667,45.9167
CAMBO-LES-BAINS,64250,6200,-1.4,43.3667
BRUNSTATT,68350,6200,7.31667,47.7167
SAINT-BONNET-DE-MURE,69720,6200,5.03333,45.6833
GOURNAY-EN-BRAY,76220,6200,1.73333,49.4833
ROYE,80700,6200,2.8,49.7
LES ARCS,83460,6200,6.48333,43.45
VAISON-LA-ROMAINE,84110,6200,5.06667,44.2333
ETRECHY,91580,6200,2.2,48.5
GOURNAY-SUR-MARNE,93460,6200,2.56667,48.8667
ENTRE-DEUX,97414,6133,-21.2494,55.4707
PERONNAS,1960,6100,5.2,46.1833
BOHAIN-EN-VERMANDOIS,2110,6100,3.45,49.9833
NOGENT-SUR-SEINE,10400,6100,3.5,48.4833
COURSAN,11110,6100,3.06667,43.2333
BETHONCOURT,25200,6100,6.8,47.5333
PLOUDALMEZEAU,29830,6100,-4.65,48.5333
LANTON,33138,6100,-1.03333,44.7
BAILLARGUES,34670,6100,4.01667,43.6667
PIGNAN,34570,6100,3.76667,43.5833
GRABELS,34790,6100,3.78333,43.65
ACIGNE,35690,6100,-1.53333,48.1333
LA TRONCHE,38700,6100,5.73333,45.2
RIVES,38140,6100,5.5,45.35
SAINT-QUENTIN-FALLAVIER,38070,6100,5.11667,45.6333
GIERES,38610,6100,5.78333,45.1833
AIRE-SUR-L'ADOUR,40800,6100,-0.266667,43.7
SAINT-PRIEST-EN-JAREZ,42270,6100,4.36667,45.4667
MEUNG-SUR-LOIRE,45130,6100,1.7,47.8333
MALESHERBES,45330,6100,2.41667,48.3
BEAUFORT-EN-VALLEE,49250,6100,-0.216667,47.4333
CARENTAN,50500,6100,-1.23333,49.3
LA BASSEE,59480,6100,2.8,50.5333
HASPARREN,64240,6100,-1.3,43.3833
GRAY,70100,6100,5.58333,47.45
MARIGNIER,74970,6100,6.51667,46.1
PUBLIER,74500,6100,6.55,46.3833
PAVILLY,76570,6100,0.966667,49.5667
LA VERRIERE,78320,6100,1.95,48.75
MORTAGNE-SUR-SEVRE,85290,6100,-0.95,47
VAUJOURS,93410,6100,2.56667,48.9333
SAINT PIERRE ET MIQUELON,97500,6080,46.7107,1.71819
DIAMANT,97223,6066,14.4774,-61.0346
GEMENOS,13420,6000,5.63333,43.3
BLAINVILLE-SUR-ORNE,14550,6000,-0.3,49.2333
ARPAJON-SUR-CERE,15130,6000,2.46667,44.9
GOND-PONTOUVRE,16160,6000,0.166111,45.6692
CHATELAILLON-PLAGE,17340,6000,-1.08333,46.0667
MARSILLARGUES,34590,6000,4.18333,43.6667
PALAVAS-LES-FLOTS,34250,6000,3.93333,43.5333
VEIGNE,37250,6000,0.733333,47.2833
LA MONTAGNE,44620,6000,-1.68333,47.1833
BON-ENCONTRE,47240,6000,0.683333,44.1833
LANEUVEVILLE-DEVANT-NANCY,54410,6000,6.23333,48.65
AUDUN-LE-TICHE,57390,6000,5.95,49.4667
ESTAIRES,59940,6000,2.71667,50.6333
LA FERTE-MACE,61600,6000,-0.366667,48.6
SAINS-EN-GOHELLE,62114,6000,2.68333,50.45
BIDART,64210,6000,-1.58333,43.4333
TOULOUGES,66350,6000,2.83333,42.6667
LA WANTZENAU,67610,6000,7.83333,48.6667
LUTTERBACH,68460,6000,7.28333,47.7667
L'ARBRESLE,69210,6000,4.61667,45.8333
TOURNUS,71700,6000,4.9,46.5667
CHATENOY-LE-ROYAL,71880,6000,4.8,46.7833
COURTRY,77181,6000,2.76667,48.5333
CHAMBOURCY,78240,6000,2.03333,48.9
SAINT-ARNOULT-EN-YVELINES,78730,6000,1.93333,48.5667
MONTDIDIER,80500,6000,2.56667,49.65
LABRUGUIERE,81290,6000,2.26667,43.5333
SAINT-MANDRIER-SUR-MER,83430,6000,5.93333,43.0667
MIGNE-AUXANCES,86440,6000,0.316667,46.6333
DELLE,90100,6000,7,47.5
JASSANS-RIOTTIER,1480,5900,4.75,45.9833
GANNAT,3800,5900,3.2,46.1
COLOMBELLES,14460,5900,-0.3,49.2
DIVES-SUR-MER,14160,5900,-0.1,49.2833
AUBIGNY-SUR-NERE,18700,5900,2.43333,47.4833
PLEDRAN,22960,5900,-2.75,48.45
SELONCOURT,25230,5900,6.86667,47.4667
TAIN-L'HERMITAGE,26600,5900,4.85,45.0667
AUSSONNE,31840,5900,1.31667,43.6833
SALLES,33770,5900,-0.869444,44.552
CHATEAUBOURG,35220,5900,-1.4,48.1167
MER,41500,5900,1.5,47.7
SAINTE-SIGOLENE,43600,5900,4.25,45.2333
BOUCHEMAINE,49080,5900,-0.6,47.4167
HEILLECOURT,54180,5900,6.2,48.65
LIVERDUN,54460,5900,06.05,48.75
MONDELANGE,57300,5900,6.16667,49.2667
FAREBERSVILLER,57450,5900,6.85,49.1167
PECQUENCOURT,59146,5900,3.21667,50.3833
LA GORGUE,59253,5900,2.7,50.6333
VILLERS-SAINT-PAUL,60870,5900,2.48333,49.2833
COURCELLES-LES-LENS,62970,5900,3.01667,50.4167
CALONNE-RICOUART,62470,5900,2.48333,50.4833
SAINT-REMY,71100,5900,4.83333,46.7667
CHANGE,72560,5900,0.283333,47.9833
SAINT-PIERRE-EN-FAUCIGNY,74800,5900,6.37251,46.0598
AMBILLY,74100,5900,6.22417,46.195
MALAUNAY,76770,5900,1.03333,49.5333
NANDY,77176,5900,2.56667,48.5833
MAULE,78580,5900,1.85,48.9167
LE PALAIS-SUR-VIENNE,87410,5900,1.31667,45.8667
MIRECOURT,88500,5900,6.13333,48.3
CILAOS,97413,5807,-21.1367,55.4697
MALLEMORT,13370,5800,5.18333,43.7333
SIMIANE-COLLONGUE,13109,5800,5.43333,43.4167
BOUILLARGUES,30230,5800,4.43333,43.8
SAINT-AUBIN-DE-MEDOC,33160,5800,-0.716667,44.75
NOYAL-CHATILLON-SUR-SEICHE,35230,5800,0.342501,48.0434
LE POINCONNET,36330,5800,1.71667,46.7667
MACHECOUL,44270,5800,-1.81667,47
BOUAYE,44830,5800,-1.7,47.15
ERNEE,53500,5800,-0.933333,48.3
INZINZAC-LOCHRIST,56650,5800,2.73306,47.8437
MARANGE-SILVANGE,57159,5800,6.1,49.2167
DECIZE,58300,5800,3.46667,46.8333
QUIEVRECHAIN,59920,5800,3.66667,50.3833
MARLES-LES-MINES,62540,5800,2.51667,50.5
COULOGNE,62137,5800,1.88333,50.9167
MUTZIG,67190,5800,7.46667,48.5333
JONAGE,69330,5800,5.03333,45.8
SAINT-MARCEL,71380,5800,4.9,46.7833
COGNIN,73160,5800,5.9,45.5667
THONES,74230,5800,6.33333,45.8833
BAILLY-ROMAINVILLIERS,77700,5800,2.81667,48.8333
ORGEVAL,78630,5800,1.98333,48.9167
LE LAVANDOU,83980,5800,6.36667,43.1333
SARRIANS,84260,5800,4.96667,44.0833
JAUNAY-CLAN,86130,5800,0.366667,46.6833
NAINTRE,86530,5800,0.483333,46.7667
FEYTIAT,87220,5800,1.33333,45.8
BOUFFEMONT,95570,5800,2.3,49.05
VIRIAT,1440,5700,5.21667,46.25
LA BOUILLADISSE,13720,5700,5.58333,43.4
CHATILLON-SUR-SEINE,21400,5700,4.55,47.85
PORDIC,22590,5700,-2.81667,48.5833
LORIOL-SUR-DROME,26270,5700,4.81667,44.75
MANDUEL,30129,5700,4.46667,43.8167
ESCALQUENS,31750,5700,1.56667,43.5167
AUDENGE,33980,5700,-1,44.6833
COURNONTERRAL,34660,5700,3.71667,43.55
SAINT-MAURICE-L'EXIL,38550,5700,4.78333,45.4
SALBRIS,41300,5700,02.05,47.4259
BRIARE,45250,5700,2.73333,47.6333
SULLY-SUR-LOIRE,45600,5700,2.36667,47.7667
LONGUYON,54260,5700,5.6,49.4333
PLOEREN,56880,5700,-2.88333,47.65
BAUD,56150,5700,-3.01667,47.8667
TEMPLEUVE,59242,5700,3.16667,50.5333
SAINT-LAURENT-BLANGY,62223,5700,2.8,50.3
LANNEMEZAN,65300,5700,0.383333,43.1333
ALTKIRCH,68130,5700,7.25,47.6167
SAINT-JORIOZ,74410,5700,6.16667,45.8333
SAINT-GERVAIS-LES-BAINS,74190,5700,6.71667,45.9
CLEON,76410,5700,1.03333,49.3167
SAINT-PIERRE-LES-NEMOURS,77140,5700,2.68333,48.2667
SOUPPES-SUR-LOING,77460,5700,2.73333,48.1833
CHEVREUSE,78460,5700,02.05,48.7
RAMBERVILLERS,88700,5700,6.63333,48.35
LARDY,91510,5700,2.26667,48.5167
GAUCHY,2430,5600,3.26667,49.8167
PORT-LA-NOUVELLE,11210,5600,03.05,43.0167
CONDE-SUR-NOIREAU,14110,5600,-0.55,48.85
NIEUL-SUR-MER,17137,5600,-1.16667,46.2
MONTBARD,21500,5600,4.33333,47.6167
MONTPON-MENESTEROL,24700,5600,0.166667,45
PENMARCH,29760,5600,3.66223,47.8123
PLONEOUR-LANVERN,29720,5600,-4.28333,47.9
MILHAUD,30540,5600,4.3,43.7833
CORNEBARRIEU,31700,5600,1.33333,43.65
SAINT-ALBAN,31140,5600,1.41667,43.7
PLEURTUIT,35730,5600,-2.06667,48.5833
TIGNIEU-JAMEYZIEU,38230,5600,5.18333,45.7333
SAINT-GENEST-LERPT,42530,5600,4.33333,45.45
SAINT-GALMIER,42330,5600,4.31667,45.5833
BONCHAMP-LES-LAVAL,53960,5600,-0.7,48.0667
WALLERS,59135,5600,3.4,50.3667
OYE-PLAGE,62215,5600,02.05,50.9833
ANNEZIN,62232,5600,2.61667,50.5333
DOURGES,62119,5600,2.98333,50.4333
USTARITZ,64480,5600,-1.45,43.4
VENDENHEIM,67550,5600,7.71667,48.6667
MAMERS,72600,5600,0.383333,48.35
SAINT-ALBAN-LEYSSE,73230,5600,5.95806,45.58
THYEZ,74300,5600,6.53333,46.0833
OCTEVILLE-SUR-MER,76930,5600,0.116667,49.55
LE TREPORT,76470,5600,1.36667,50.0667
FRANQUEVILLE-SAINT-PIERRE,76520,5600,1.18,49.4012
ESBLY,77450,5600,2.81667,48.9
MAGNANVILLE,78200,5600,1.68333,48.9667
GAREOULT,83136,5600,06.05,43.3333
MAZAN,84380,5600,5.13333,44.05
RUNGIS,94150,5600,2.35,48.75
MAGNY-EN-VEXIN,95420,5600,1.78333,49.15
GRAND-BOURG,97112,5530,15.8828,-61.3157
BOGNY-SUR-MEUSE,8120,5500,4.76778,49.8508
TREBES,11800,5500,2.43333,43.2167
LUC-LA-PRIMAUBE,12450,5500,2.53333,44.3167
MARENNES,17320,5500,-1.11667,45.8167
NUITS-SAINT-GEORGES,21700,5500,4.95,47.1333
GENLIS,21110,5500,5.21667,47.2333
LAUDUN-L'ARDOISE,30290,5500,4.66667,44.1
ARES,33740,5500,-1.1394,44.7671
CASTRIES,34160,5500,3.98333,43.6667
VENDARGUES,34740,5500,3.96667,43.65
COMBOURG,35270,5500,-1.75,48.4167
MELESSE,35520,5500,-1.7,48.2167
MOREZ,39400,5500,6.03333,46.5167
PONT-SAINT-MARTIN,44860,5500,-1.58333,47.1167
HAUTE-GOULAINE,44115,5500,-1.43333,47.2
QUERQUEVILLE,50460,5500,-1.7,49.6667
L'HOPITAL,57490,5500,6.73333,49.1667
FAULQUEMONT,57380,5500,6.6,49.05
BITCHE,57230,5500,7.43333,49.05
SAINGHIN-EN-WEPPES,59184,5500,2.9,50.55
GRAND-FORT-PHILIPPE,59153,5500,2.10833,51
FLERS-EN-ESCREBIEUX,59128,5500,03.05,50.4
SAINT-JUST-EN-CHAUSSEE,60130,5500,2.43333,49.5
LOISON-SOUS-LENS,62218,5500,2.86667,50.4333
LEZOUX,63190,5500,3.38333,45.8333
WASSELONNE,67310,5500,7.45,48.6333
REICHSHOFFEN,67110,5500,7.66667,48.9333
SAINTE-MARIE-AUX-MINES,68160,5500,7.18333,48.25
MONTCHANIN,71210,5500,4.45,46.75
CHAGNY,71150,5500,4.75,46.9167
BOIS-LE-ROI,77590,5500,2.7,48.4667
AIXE-SUR-VIENNE,87700,5500,1.13333,45.8
VITTEL,88800,5500,5.95,48.2
MARLY-LA-VILLE,95670,5500,2.5,49.0833
PARMAIN,95620,5500,2.21667,49.1167
PORT-LOUIS,97117,5440,16.4272,-61.5106
GUISE,2120,5400,3.63333,49.9
BAR-SUR-AUBE,10200,5400,4.71667,48.2333
SAINT-MITRE-LES-REMPARTS,13920,5400,5.01667,43.45
LA SOUTERRAINE,23300,5400,1.48333,46.2333
SAINT-ASTIER,24110,5400,0.528056,45.1453
FRONTON,31620,5400,1.4,43.85
LESPARRE-MEDOC,33340,5400,-0.933333,45.3
VIAS,34450,5400,3.41667,43.3
GIGEAN,34770,5400,3.7,43.5
SAINT-MARTIN-LE-VINOUX,38950,5400,5.71667,45.2
AUREC-SUR-LOIRE,43110,5400,4.2,45.3667
MURS-ERIGNE,49130,5400,-0.55,47.4
KERVIGNAC,56700,5400,-3.23333,47.7667
SANTES,59211,5400,2.95,50.6
FENAIN,59179,5400,3.3,50.3667
FERRIERE-LA-GRANDE,59680,5400,4,50.25
FLINES-LEZ-RACHES,59148,5400,3.18306,50.4267
MOUY,60250,5400,2.31667,49.3167
GUINES,62340,5400,1.86667,50.8667
DAINVILLE,62000,5400,2.71667,50.2833
CEYRAT,63122,5400,3.06667,45.7333
SAINT-PEE-SUR-NIVELLE,64310,5400,-1.55,43.35
BENFELD,67230,5400,7.6,48.3667
BRINDAS,69126,5400,4.68333,45.7167
SAINT-CYR-AU-MONT-D'OR,69450,5400,4.81667,45.8
MORNANT,69440,5400,4.66667,45.6167
SAINT-PATHUS,77178,5400,2.8,49.0667
BUC,78530,5400,2.13333,48.7667
LA CRECHE,79260,5400,-0.3,46.3609
NUEIL-LES-AUBIERS,79250,5400,-0.59,46.9373
LONGUEAU,80330,5400,2.35,49.8667
MONTAUROUX,83440,5400,6.76667,43.6167
TRANS-EN-PROVENCE,83720,5400,6.48333,43.5
POUZAUGES,85700,5400,-0.833333,46.7833
CALVI,20260,5400,8.75667,42.5678
PREVESSIN-MOENS,1280,5300,6.08333,46.25
CHATEAU-ARNOUX-SAINT-AUBAN,4160,5300,6.00917,44.0942
SAINT-CANNAT,13760,5300,5.3,43.6167
PEYPIN,13124,5300,5.58333,43.3833
LE PUY-SAINTE-REPARADE,13610,5300,5.43333,43.6667
L'ISLE-D'ESPAGNAC,16340,5300,0.2,45.6667
DOMPIERRE-SUR-MER,17139,5300,-1.06667,46.1833
BAUME-LES-DAMES,25110,5300,6.36667,47.35
SAINT-RAMBERT-D'ALBON,26140,5300,4.81667,45.2833
EPERNON,28230,5300,1.68333,48.6167
VILLEMUR-SUR-TARN,31340,5300,1.51667,43.8667
IZON,33450,5300,-0.366667,44.9167
CANCALE,35260,5300,-1.85,48.6833
SAINT-MARTIN-D'URIAGE,38410,5300,5.83333,45.15
SURY-LE-COMTAL,42450,5300,4.16667,45.5333
HERBIGNAC,44410,5300,-2.31667,47.45
VIGNEUX-DE-BRETAGNE,44360,5300,-1.73333,47.3167
SAINT-PRYVE-SAINT-MESMIN,45750,5300,1.86667,47.8833
BOE,47550,5300,0.633333,44.1667
LA GLACERIE,50470,5300,-1.56667,49.6
FISMES,51170,5300,3.68333,49.3
SAINT-MEMMIE,51470,5300,4.38333,48.95
CHANGE,53810,5300,-0.8,48.1
BRIEY,54150,5300,5.93333,49.25
PLOUAY,56240,5300,-3.33333,47.9167
LA CHARITE-SUR-LOIRE,58400,5300,3.01889,47.177
BAUVIN,59221,5300,2.88333,50.5167
WORMHOUT,59470,5300,2.46667,50.8833
GAN,64290,5300,-0.383333,43.2333
ILLE-SUR-TET,66130,5300,2.61667,42.6667
LE BOULOU,66160,5300,2.83333,42.5167
SAUSHEIM,68390,5300,7.36667,47.7833
ANSE,69480,5300,4.71667,45.9333
BOURBON-LANCY,71140,5300,3.78333,46.6167
MARNAZ,74460,5300,6.53333,46.0667
NANTEUIL-LES-MEAUX,77100,5300,2.9,48.9333
MAGNY-LE-HONGRE,77700,5300,2.81667,48.8667
ROSNY-SUR-SEINE,78710,5300,1.63333,49
MONTECH,82700,5300,1.23333,43.95
LA CADIERE-D'AZUR,83740,5300,5.76667,43.2
SAINT-TROPEZ,83990,5300,6.63333,43.2667
COURTHEZON,84350,5300,4.88333,44.0833
AMBAZAC,87240,5300,1.4,45.95
TONNERRE,89700,5300,3.96667,47.85
VILLENEUVE-SUR-YONNE,89500,5300,3.3,48.0833
EGLY,91520,5300,2.21667,48.5833
BAILLIF,97123,5214,16.025,-61.7287
PLAINE-DES-PALMISTES,97431,5213,-21.134,55.6296
SAINT-DENIS-LES-BOURG,1000,5200,5.2,46.2
ORAISON,4700,5200,5.91667,43.9167
SIGEAN,11130,5200,2.98333,43.0333
ENSUES-LA-REDONNE,13820,5200,5.2,43.35
PUILBOREAU,17138,5200,-1.1,46.1833
BRIEC,29510,5200,-4,48.1
SCAER,29390,5200,-3.7,48.0333
CHATEAULIN,29150,5200,-4.08333,48.2
BANNALEC,29380,5200,-3.7,47.9333
ROQUEMAURE,30150,5200,4.78333,44.05
LA GRAND-COMBE,30110,5200,4.03333,44.2167
CASTELNAU-D'ESTRETEFONDS,31620,5200,1.36667,43.7833
PAUILLAC,33250,5200,-0.75,45.2
LE PIAN-MEDOC,33290,5200,-0.633333,44.9667
SAINT-GEORGES-D'ORQUES,34680,5200,3.78333,43.6167
GIGNAC,34150,5200,3.55,43.65
ARGENTON-SUR-CREUSE,36200,5200,1.51667,46.5833
CHATEAU-RENAULT,37110,5200,0.916667,47.5833
LES AVENIERES,38630,5200,5.56667,45.6333
SAINT-ANDRE-DES-EAUX,44117,5200,-2.31667,47.3167
FUMEL,47500,5200,0.966667,44.5
SEZANNE,51120,5200,3.71667,48.7167
ARRADON,56610,5200,-2.83333,47.6333
LAMBRES-LEZ-DOUAI,59552,5200,3.06778,50.3531
OSTRICOURT,59162,5200,3.03333,50.45
CUCQ,62780,5200,1.61667,50.4833
NOYELLES-GODAULT,62950,5200,2.98333,50.4167
BLENDECQUES,62575,5200,2.26667,50.7167
FEGERSHEIM,67640,5200,7.68333,48.4833
LENTILLY,69210,5200,4.66667,45.8167
SAINT-SYMPHORIEN-D'OZON,69360,5200,4.86667,45.6333
SCIEZ,74140,5200,6.38333,46.3333
LE TRAIT,76580,5200,0.816667,49.4667
JOUARS-PONTCHARTRAIN,78760,5200,1.9,48.7833
CHAURAY,79180,5200,-0.383333,46.35
HAM,80400,5200,3.06667,49.75
PIERREFEU-DU-VAR,83390,5200,6.13333,43.2167
WISSOUS,91320,5200,2.33333,48.7333
SAINTRY-SUR-SEINE,91250,5200,2.5,48.6
ABLON-SUR-SEINE,94480,5200,2.41667,48.7167
SAINT-POURCAIN-SUR-SIOULE,3500,5100,3.28333,46.3
LA ROQUE-D'ANTHERON,13640,5100,5.31667,43.7167
NOVES,13550,5100,4.9,43.8667
MEYREUIL,13590,5100,5.5,43.4833
CHAMPNIERS,16430,5100,0.2,45.7167
MARSANNAY-LA-COTE,21160,5100,4.98333,47.2667
DONZERE,26290,5100,4.71667,44.45
LANNILIS,29870,5100,-4.51667,48.5667
BEAUZELLE,31700,5100,1.36667,43.6667
FENOUILLET,31150,5100,1.4,43.6833
SAINT-CLEMENT-DE-RIVIERE,34980,5100,3.84639,43.6837
CLAPIERS,34830,5100,3.88333,43.65
NOYAL-SUR-VILAINE,35530,5100,-1.51667,48.1167
BLERE,37150,5100,1,47.3333
PONT-EVEQUE,38780,5100,4.91667,45.5333
LA MURE,38350,5100,5.78751,44.9031
PARENTIS-EN-BORN,40160,5100,-1.06667,44.35
CHAZELLES-SUR-LYON,42140,5100,4.38333,45.6333
LA GRAND-CROIX,42320,5100,4.55,45.5
SAINTE-PAZANNE,44680,5100,-1.81667,47.1
LE POULIGUEN,44510,5100,-2.43333,47.2667
HERIC,44810,5100,-1.65,47.4167
POMPEY,54340,5100,6.11667,48.7667
SEICHAMPS,54280,5100,6.26667,48.7167
MOULINS-LES-METZ,57160,5100,6.1,49.1
DECHY,59187,5100,3.11667,50.35
MARQUISE,62250,5100,1.7,50.8167
SAINT-ETIENNE-AU-MONT,62360,5100,1.61667,50.6667
DESVRES,62240,5100,1.83333,50.6667
LE TOUQUET-PARIS-PLAGE,62520,5100,1.58333,50.5167
SAINT-POL-SUR-TERNOISE,62130,5100,2.33333,50.3833
DOUVRIN,62138,5100,2.83333,50.5167
BEAURAINS,62217,5100,2.78333,50.2667
VIC-EN-BIGORRE,65500,5100,0.05,43.3833
MUNDOLSHEIM,67450,5100,7.7,48.65
AMPLEPUIS,69550,5100,4.33333,45.9833
TERNAY,69360,5100,4.81667,45.6167
ARNAGE,72230,5100,0.183333,47.9333
CHALLES-LES-EAUX,73190,5100,5.98333,45.55
CRANVES-SALES,74380,5100,6.3,46.1833
FONTENAY-TRESIGNY,77610,5100,2.86667,48.7
SAINT-NOM-LA-BRETECHE,78860,5100,2.01667,48.85
VILLENNES-SUR-SEINE,78670,5100,2,48.95
AIFFRES,79230,5100,-0.416667,46.2833
VALENCE,82400,5100,0.916667,44.1
SOLLIES-TOUCAS,83210,5100,6.01667,43.2
BEDARRIDES,84370,5100,4.9,44.0333
MAROLLES-EN-BRIE,94440,5100,2.55,48.7333
MENUCOURT,95180,5100,1.98333,49.0167
SAINT-PHILIPPE,97442,5086,0,0
MORNE-ROUGE,97260,5083,14.7834,-61.1365
GRAND-SANTI,97340,5065,4.27555,-54.3839
LA ROQUETTE-SUR-SIAGNE,6550,5000,6.95,43.6
CAP-D'AIL,6320,5000,7.4,43.7167
LA VOULTE-SUR-RHONE,7800,5000,4.78333,44.8
ROQUEFORT-LA-BEDOULE,13830,5000,5.61667,43.25
SAINT-GEORGES-DE-DIDONNE,17110,5000,-1,45.6
PLOUMAGOAR,22970,5000,-3.13333,48.55
GRAND-CHARMONT,25200,5000,6.83333,47.5333
MANDEURE,25350,5000,6.8,47.45
SAINT-MARCEL-LES-VALENCE,26320,5000,4.95,44.9667
SAINT-MARCEL,27950,5000,1.45,49.1
CONCHES-EN-OUCHE,27190,5000,0.933333,48.9667
CARBONNE,31390,5000,1.23333,43.3
SAINT-JORY,31790,5000,1.38333,43.7333
CANEJAN,33610,5000,-0.654722,44.7631
BLAYE,33390,5000,-0.662222,45.1278
SAINT-ANDRE-DE-SANGONIS,34725,5000,3.5,43.65
DOL-DE-BRETAGNE,35120,5000,-1.75,48.55
LUYNES,37230,5000,0.55,47.3833
CHASSE-SUR-RHONE,38670,5000,4.81667,45.5667
LA CHAPELLE-BASSE-MER,44450,5000,-1.33333,47.2667
MARVEJOLS,48100,5000,3.28333,44.55
MOURMELON-LE-GRAND,51400,5000,4.36667,49.1333
RIANTEC,56670,5000,-3.31667,47.7167
PLUNERET,56400,5000,-2.96667,47.6833
QUIBERON,56170,5000,-3.11667,47.4833
LE QUESNOY,59530,5000,3.63333,50.25
AVESNES-SUR-HELPE,59440,5000,3.93333,50.1167
HAILLICOURT,62940,5000,2.58333,50.4667
SAINT-NICOLAS,62223,5000,2.775,50.3
SEMEAC,65600,5000,0.116667,43.2333
DRUSENHEIM,67410,5000,7.95,48.7667
OBERHAUSBERGEN,67205,5000,7.68333,48.6167
HORBOURG-WIHR,68180,5000,7.39445,48.0795
CHAMPAGNE-AU-MONT-D'OR,69410,5000,4.78333,45.8
SAINT-LAURENT-DE-MURE,69720,5000,5.03333,45.6833
QUINCY-VOISINS,77860,5000,2.88333,48.9
SAINT-SATURNIN-LES-AVIGNON,84450,5000,4.93333,43.95
MONTAIGU,85600,5000,-1.31667,46.9833
VALDOIE,90300,5000,6.85,47.6667
BEAUCOURT,90500,5000,6.91667,47.4833
BIEVRES,91570,5000,2.21667,48.75
KANI-KLI,97625,4920,45.1036,-12.9574
THOIRY,1710,4900,5.97973,46.2364
CHATILLON-SUR-CHALARONNE,1400,4900,4.96667,46.1167
DOUVRES-LA-DELIVRANDE,14440,4900,-0.383333,49.2833
TROUVILLE-SUR-MER,14360,4900,0.083333,49.3667
SAINT-MARTIN-DES-CHAMPS,29600,4900,-3.83333,48.5833
BRUGUIERES,31150,4900,1.41667,43.7333
SAINT-DENIS-DE-PILE,33910,4900,-0.2,45
JACOU,34830,4900,3.9,43.6667
PONT-DE-CHERUY,38230,4900,5.18333,45.75
SAINT-SEVER,40500,4900,-0.566667,43.7667
LA CHEVROLIERE,44118,4900,-1.61667,47.1
GUEMENE-PENFAO,44290,4900,-1.83333,47.6333
FOULAYRONNES,47510,4900,0.666667,44.2333
BEAUCOUZE,49070,4900,-0.633333,47.4667
NILVANGE,57240,4900,06.05,49.35
PETITE-FORET,59494,4900,3.48333,50.3667
MONTIGNY-EN-OSTREVENT,59182,4900,3.18695,50.3667
BREBIERES,62117,4900,3.01667,50.3333
MUNSTER,68140,4900,7.13333,48.05
RIBEAUVILLE,68150,4900,7.31667,48.2
GENAY,69730,4900,4.83333,45.9
NEUFCHATEL-EN-BRAY,76270,4900,1.45,49.7333
VAUX-SUR-SEINE,78740,4900,1.96667,49.0167
RABASTENS,81800,4900,1.75,43.8333
FAYENCE,83440,4900,6.68333,43.6167
LES ESSARTS,85140,4900,-1.23333,46.7667
VOUNEUIL-SOUS-BIARD,86580,4900,0.266667,46.5833
NEUVILLE-DE-POITOU,86170,4900,0.245833,46.6861
SAINT-FLORENTIN,89600,4900,3.73333,48
SAULX-LES-CHARTREUX,91160,4900,2.26667,48.6833
POMPIDOU PAPA ICHTON,97316,4827,3.92768,-54.0777
SAINT-ANDRE-DE-LA-ROCHE,6730,4800,7.28333,43.7333
PONT-SAINTE-MARIE,10150,4800,4.1,48.3167
VENTABREN,13122,4800,5.3,43.5333
GIBERVILLE,14730,4800,-0.283333,49.1833
SAINT-GERMAIN-DU-PUY,18390,4800,2.48333,47.1
VALDAHON,25800,4800,6.34473,47.1498
PACY-SUR-EURE,27120,4800,1.38333,49.0167
LEVES,28300,4800,1.48333,48.4667
LOCMARIA-PLOUZANE,29280,4800,3.35639,48.3748
POUSSAN,34560,4800,3.66667,43.4833
BREAL-SOUS-MONTFORT,35310,4800,-1.86667,48.05
LA VILLE-AUX-DAMES,37700,4800,0.766667,47.4
SAINT-MIHIEL,55300,4800,5.55,48.9
GRAND-CHAMP,56390,4800,-2.85,47.7667
PLOUHINEC,56680,4800,2.74889,47.6975
ELVEN,56250,4800,-2.58333,47.7333
BOULAY-MOSELLE,57220,4800,6.5,49.1833
THOUROTTE,60150,4800,2.88333,49.4833
LAVENTIE,62840,4800,2.76667,50.6333
SALIES-DE-BEARN,64270,4800,-0.916667,43.4833
CANOHES,66680,4800,2.83333,42.65
SOUFFLENHEIM,67620,4800,7.96667,48.8333
SCHWEIGHOUSE-SUR-MODER,67590,4800,7.72806,48.8192
ESCHAU,67114,4800,7.71667,48.4833
HABSHEIM,68440,4800,7.41667,47.7333
GREZIEU-LA-VARENNE,69290,4800,4.7,45.75
DOUVAINE,74140,4800,6.3,46.3167
LA BALME-DE-SILLINGY,74330,4800,6.03333,45.9667
TRILPORT,77470,4800,2.95,48.95
VENEUX-LES-SABLONS,77250,4800,2.8,48.3667
L'ETANG-LA-VILLE,78620,4800,2.06667,48.8667
NEGREPELISSE,82800,4800,1.51667,44.0667
SAINT-ZACHARIE,83640,4800,5.71667,43.3833
TOURVES,83170,4800,5.93333,43.4
L'ILE-D'YEU,85350,4800,1.65167,46.7242
NOIRMOUTIER-EN-L'ILE,85330,4800,-2.225,47.0083
BAVILLIERS,90850,4800,6.83333,47.6167
VILLABE,91100,4800,2.45,48.5833
SAINT-CHERON,91530,4800,2.11667,48.55
ANSE-BERTRAND,97121,4775,16.4714,-61.5099
ACOUA,97630,4714,45.0645,-12.7239
TOURRETTE-LEVENS,6690,4700,7.26667,43.7833
CUGES-LES-PINS,13780,4700,5.7,43.2833
MEZIDON-CANON,14270,4700,-0.07,49.0737
BARBEZIEUX-SAINT-HILAIRE,16300,4700,-0.155556,45.4728
YFFINIAC,22120,4700,-2.675,48.4833
LABARTHE-SUR-LEZE,31860,4700,1.4,43.45
SAINTE-EULALIE,33560,4700,-0.483333,44.9167
CADAUJAC,33140,4700,-0.533333,44.75
FLORENSAC,34510,4700,3.45,43.3833
SAINT-MATHIEU-DE-TREVIERS,34270,4700,3.85,43.7667
HEYRIEUX,38540,4700,05.05,45.6333
LA COTE-SAINT-ANDRE,38260,4700,5.25,45.3833
SAINT-MARTIN-DE-SEIGNANX,40390,4700,-1.38333,43.55
MONTROND-LES-BAINS,42210,4700,4.23333,45.6333
L'HORME,42152,4700,4.55,45.4833
MISSILLAC,44780,4700,-2.16667,47.4833
SAINT-JEAN-DE-BOISEAU,44640,4700,-1.71667,47.2
MAZE,49250,4700,-0.266667,47.45
WITRY-LES-REIMS,51420,4700,4.11667,49.3
BACCARAT,54120,4700,6.75,48.45
PLESCOP,56890,4700,-2.8,47.7
PHALSBOURG,57370,4700,7.26667,48.7667
ARS-SUR-MOSELLE,57130,4700,6.06667,49.0833
FOURCHAMBAULT,58180,4700,3.08333,47.0167
WERVICQ-SUD,59117,4700,03.05,50.7667
BRAY-DUNES,59123,4700,2.51667,51.0833
MARCHIENNES,59870,4700,3.28223,50.4081
SAINT-LEU-D'ESSERENT,60340,4700,2.41667,49.2167
AUDRUICQ,62370,4700,2.08333,50.8833
BILLOM,63160,4700,3.35,45.7167
VIC-LE-COMTE,63270,4700,3.25,45.6333
BIZANOS,64320,4700,-0.35,43.2833
BANYULS-SUR-MER,66650,4700,3.13333,42.4833
ROSHEIM,67190,4700,7.46667,48.5
CHARBONNIERES-LES-BAINS,69260,4700,4.73333,45.7833
VAUGNERAY,69670,4700,4.65,45.7333
SAINT-GENIS-LES-OLLIERES,69290,4700,4.73333,45.75
PARIGNE-L'EVEQUE,72250,4700,0.366667,47.9333
CHATEAU-DU-LOIR,72500,4700,0.416667,47.7
BARBERAZ,73000,4700,5.93333,45.55
BONS-EN-CHABLAIS,74890,4700,6.37028,46.2645
MOUROUX,77120,4700,3.03333,48.8167
LE PORT-MARLY,78560,4700,2.11667,48.8833
PIOLENC,84420,4700,4.76667,44.1833
AUBIGNAN,84810,4700,5.01667,44.1
CONDAT-SUR-VIENNE,87920,4700,1.23333,45.8
SAINT-LEONARD-DE-NOBLAT,87400,4700,1.48333,45.8333
LA BRESSE,88250,4700,6.88333,48
MILLY-LA-FORET,91490,4700,2.46667,48.4
NOZAY,91620,4700,2.23333,48.65
MAROLLES-EN-HUREPOIX,91630,4700,2.3,48.5667
COUBRON,93470,4700,2.58333,48.9167
VIARMES,95270,4700,2.36667,49.1333
FURIANI,20600,4700,9.41445,42.6581
SAINTE-ANNE,97227,4684,14.4367,-60.8809
FORCALQUIER,4300,4600,5.78333,43.9667
LEVENS,6670,4600,7.21667,43.8667
DRAP,6340,4600,7.31667,43.75
CAPDENAC-GARE,12700,4600,2.08333,44.5667
ROGNES,13840,4600,5.35,43.6667
SAINT-XANDRE,17138,4600,-1.1,46.2
MARANS,17230,4600,-1,46.3
SAINT-PANTALEON-DE-LARCHE,19600,4600,1.45,45.1333
PLOUHA,22580,4600,-2.93333,48.6833
BEGARD,22140,4600,-3.3,48.6333
SAINT-VIT,25410,4600,5.81667,47.1833
PONT-DE-ROIDE,25150,4600,6.76667,47.3833
CHATUZANGE-LE-GOUBET,26300,4600,5.08333,45
ETOILE-SUR-RHONE,26800,4600,4.9,44.8333
SAINT-SEBASTIEN-DE-MORSENT,27180,4600,1.08333,49.0167
PLOUIGNEAU,29610,4600,-3.7,48.5667
CALVISSON,30420,4600,4.18333,43.7833
MERVILLE,31330,4600,1.31667,43.7333
QUINT-FONSEGRIVES,31130,4600,1.52611,43.5848
BAZAS,33430,4600,-0.216667,44.4333
MORCENX,40110,4600,-0.916667,44.0333
LAMOTTE-BEUVRON,41600,4600,2.01667,47.6
SELLES-SUR-CHER,41130,4600,1.55,47.2667
GRANDCHAMPS-DES-FONTAINES,44119,4600,0.394723,47.365
GOURDON,46300,4600,1.38333,44.7333
CASTELJALOUX,47700,4600,0.1,44.3167
SAINTE-MENEHOULD,51800,4600,4.9,49.0833
CRAON,53400,4600,-0.95,47.85
DIEULOUARD,54380,4600,6.06667,48.85
SARRALBE,57430,4600,7.01667,49
AUBERCHICOURT,59165,4600,3.23333,50.3333
SOLESMES,59730,4600,3.5,50.1833
BOUSBECQUE,59166,4600,3.08333,50.7667
GUESNAIN,59287,4600,3.15,50.35
SEES,61500,4600,0.166667,48.6
SANGATTE,62231,4600,1.75,50.9333
VOLVIC,63530,4600,03.05,45.8667
LE CENDRE,63670,4600,3.2,45.7333
MOUGUERRE,64990,4600,-1.41667,43.4667
HERRLISHEIM,67850,4600,7.9,48.7333
ROUFFACH,68250,4600,7.28333,47.9667
INGERSHEIM,68040,4600,7.3,48.1
CLUNY,71250,4600,4.65,46.4333
ECOMMOY,72220,4600,0.266667,47.8333
MONTVILLE,76710,4600,1.07556,49.5464
CERIZAY,79140,4600,-0.666667,46.8167
CAMON,80450,4600,2.35,49.8833
CAUMONT-SUR-DURANCE,84510,4600,4.95,43.9
LA FERRIERE,85280,4600,-1.31667,46.7167
CHASSENEUIL-DU-POITOU,86360,4600,0.366667,46.65
CHARMES,88130,4600,6.28333,48.3667
OLLAINVILLE,91290,4600,2.21667,48.5833
LA FRETTE-SUR-SEINE,95530,4600,2.18333,48.9667
CHAMPAGNE-SUR-OISE,95660,4600,2.25,49.1333
ESPALION,12500,4500,2.76667,44.5167
MIMET,13105,4500,5.5,43.4167
PEYROLLES-EN-PROVENCE,13860,4500,5.58333,43.65
CORMELLES-LE-ROYAL,14123,4500,-0.330278,49.1539
JARNAC,16200,4500,-0.166667,45.6833
LA TREMBLADE,17390,4500,-1.13333,45.7667
AUBEVOYE,27940,4500,1.33333,49.15
MAINTENON,28130,4500,1.58333,48.5833
PLOURIN-LES-MORLAIX,29600,4500,2.21028,48.535
SOMMIERES,30250,4500,4.08333,43.7833
PINS-JUSTARET,31860,4500,1.38333,43.4798
PRADES-LE-LEZ,34730,4500,3.86667,43.7
VALRAS-PLAGE,34350,4500,3.28333,43.25
MONTAUBAN-DE-BRETAGNE,35360,4500,-2.05,48.2
BUZANCAIS,36500,4500,1.41667,46.8833
LA CHATRE,36400,4500,1.98333,46.5833
BEAUREPAIRE,38270,4500,05.05,45.3333
MONTBONNOT-SAINT-MARTIN,38330,4500,5.8,45.2333
SAINT-LAURENT-DU-PONT,38380,4500,5.73333,45.3833
HAGETMAU,40700,4500,-0.583333,43.6667
LABENNE,40530,4500,-1.41667,43.6
LORETTE,42420,4500,4.58333,45.5167
JARGEAU,45150,4500,2.11667,47.8667
SAINT-CHELY-D'APCHER,48200,4500,3.28333,44.8
FAGNIERES,51510,4500,4.31667,48.9667
HERSERANGE,54440,4500,5.78333,49.5167
PULNOY,54420,4500,6.26667,48.7
LIGNY-EN-BARROIS,55500,4500,5.33333,48.6833
MUZILLAC,56190,4500,-2.48333,47.55
LEFFRINCKOUCKE,59495,4500,2.46667,51.0333
ERQUINGHEM-LYS,59193,4500,2.85,50.6833
PHALEMPIN,59133,4500,3.01667,50.5167
CYSOING,59830,4500,3.21667,50.5667
MASNY,59176,4500,3.2,50.35
LACROIX-SAINT-OUEN,60610,4500,2.78333,49.35
AUCHY-LES-MINES,62138,4500,2.78333,50.5167
EVIN-MALMAISON,62141,4500,3.03333,50.4333
ROYAT,63130,4500,03.05,45.7667
COURPIERE,63120,4500,3.55,45.75
SAINT-PIERRE-D'IRUBE,64990,4500,-1.46667,43.4833
MONEIN,64360,4500,-0.583333,43.3333
GAMBSHEIM,67760,4500,7.88333,48.7
REICHSTETT,67116,4500,7.75,48.65
SAINT-PIERRE-DE-CHANDIEU,69780,4500,5.01667,45.65
MULSANNE,72230,4500,0.25,47.9
SAINT-VALERY-EN-CAUX,76460,4500,0.733333,49.8667
COIGNIERES,78310,4500,1.91667,48.75
ISSOU,78440,4500,1.78333,49
FRIVILLE-ESCARBOTIN,80130,4500,1.55,50.0833
SALOUEL,80480,4500,2.25,49.8667
PARON,89100,4500,3.25,48.1833
CASE-PILOTE,97222,4469,14.6415,-61.1357
DESHAIES,97126,4431,16.3095,-61.7922
SAINT-PIERRE,97250,4425,14.744,-61.1738
DESERTINES,3630,4400,2.61667,46.35
SAVERDUN,9700,4400,1.58333,43.2333
CUXAC-D'AUDE,11590,4400,3,43.25
GRUISSAN,11430,4400,3.08333,43.1
PONS,17800,4400,-0.55,45.5833
EGLETONS,19300,4400,02.05,45.4
VILLERS-LE-LAC,25130,4400,6.66667,47.0667
DIE,26150,4400,5.36667,44.75
BONNEVAL,28800,4400,1.4,48.1833
SAINT-PRIVAT-DES-VIEUX,30340,4400,4.13333,44.1333
GARONS,30128,4400,4.41667,43.7667
LE BARP,33114,4400,-0.766667,44.6167
LACANAU,33680,4400,-1.079,44.9833
BESSAN,34550,4400,3.41667,43.3667
LAILLE,35890,4400,-1.71667,47.9833
ESVRES,37320,4400,0.783333,47.2833
LE VERSOUD,38420,4400,5.86667,45.2
ONDRES,40440,4400,-1.43333,43.5667
VILLEREST,42300,4400,4.03667,45.9934
LA FOUILLOUSE,42480,4400,4.31667,45.5
LA TURBALLE,44420,4400,-2.51667,47.35
SAINT-MICHEL-CHEF-CHEF,44730,4400,-2.15,47.1833
AIGUILLON,47190,4400,0.35,44.3
SAINT-SYLVAIN-D'ANJOU,49480,4400,-0.466667,47.5167
BLENOD-LES-PONT-A-MOUSSON,54700,4400,06.05,48.8833
CARNAC,56340,4400,-3.08333,47.5833
LE BAN-SAINT-MARTIN,57050,4400,6.15,49.1167
CRESPIN,59154,4400,3.65,50.4167
SEQUEDIN,59320,4400,2.98333,50.6167
VERNEUIL-EN-HALATTE,60550,4400,2.51667,49.2833
VIMY,62580,4400,2.81667,50.3667
VITRY-EN-ARTOIS,62490,4400,2.98333,50.3333
SAINTE-MARIE,66470,4400,3.01695,42.7273
NIEDERBRONN-LES-BAINS,67110,4400,7.63333,48.95
HOERDT,67720,4400,7.78333,48.7
KEMBS,68680,4400,7.5,47.6833
LIMAS,69400,4400,4.7,45.9667
VERNAISON,69390,4400,4.81667,45.65
SANVIGNES-LES-MINES,71410,4400,4.3,46.6667
YVRE-L'EVEQUE,72530,4400,0.266667,48.0167
MORET-SUR-LOING,77250,4400,2.81667,48.3667
LE CHATELET-EN-BRIE,77820,4400,2.8,48.5
FLAYOSC,83780,4400,6.4,43.5333
POURRIERES,83910,4400,5.73333,43.5
CAMARET-SUR-AIGUES,84850,4400,4.88333,44.1667
MOUILLERON-LE-CAPTIF,85000,4400,-1.45,46.7167
LA GARNACHE,85710,4400,-1.83333,46.8833
BELLAC,87300,4400,01.05,46.1167
LE COUDRAY-MONTCEAUX,91830,4400,2.5,48.5667
NOISEAU,94880,4400,2.55,48.7833
MERIEL,95630,4400,2.2,49.0833
VILLARS-LES-DOMBES,1330,4300,5.01667,46
BEYNOST,1700,4300,5,45.8333
CABANNES,13440,4300,4.95,43.8667
ROUSSET,13790,4300,5.62223,43.4823
EYRAGUES,13630,4300,4.83333,43.8333
BRIONNE,27800,4300,0.716667,49.2
PLOUHINEC,29780,4300,3.51389,48.015
CAZERES,31220,4300,1.08333,43.2167
EAUNES,31600,4300,1.35,43.4167
SAINT-SULPICE-ET-CAMEYRAC,33450,4300,-0.4,44.9167
TEYRAN,34820,4300,3.91667,43.6833
SAINT-MEEN-LE-GRAND,35290,4300,-2.2,48.1833
SAINT-JEAN-DE-BOURNAY,38440,4300,5.13333,45.4833
POLIGNY,39800,4300,5.71667,46.8333
PLESSE,44630,4300,-1.88333,47.5333
LE PELLERIN,44640,4300,-1.75,47.2
PONT-DU-CASSE,47480,4300,0.683333,44.2333
FOLSCHVILLER,57730,4300,6.68333,49.0667
CLAMECY,58500,4300,3.51667,47.45
BAISIEUX,59780,4300,3.25,50.6
BRETEUIL,60120,4300,2.3,49.6333
ANNAY,62880,4300,2.88333,50.4667
HAISNES,62138,4300,2.8,50.5167
VERMELLES,62980,4300,2.73333,50.4833
BILLY-BERCLAU,62138,4300,2.86667,50.5167
WIMILLE,62126,4300,1.63333,50.7667
AULNAT,63510,4300,3.16667,45.8
PORT-VENDRES,66660,4300,3.11667,42.5167
SALEILLES,66280,4300,2.95,42.65
MARCKOLSHEIM,67390,4300,7.55,48.1667
CHARLY,69390,4300,4.8,45.65
MORMANT,77720,4300,2.88333,48.6
GRIMAUD,83310,4300,6.51667,43.2667
LE CASTELLET,83330,4300,5.77667,43.2028
JONQUIERES,84150,4300,4.9,44.1167
VENANSAULT,85190,4300,-1.51667,46.6833
MORIGNY-CHAMPIGNY,91150,4300,2.2,48.45
MANDRES-LES-ROSES,94520,4300,2.55,48.7
HAUTEVILLE-LOMPNES,1110,4200,5.6,45.9667
TOURRETTES-SUR-LOUP,6140,4200,07.05,43.7167
VOUZIERS,8400,4200,4.7,49.4
AUBIN,12110,4200,2.25,44.5333
GRANS,13450,4200,5.06667,43.6
LE ROVE,13740,4200,5.25,43.3667
PONT-L'EVEQUE,14130,4200,0.183333,49.3
COURSEULLES-SUR-MER,14470,4200,-0.45,49.3333
SEMUR-EN-AUXOIS,21140,4200,4.33361,47.4914
CHANCELADE,24650,4200,0.666667,45.2
MAICHE,25120,4200,6.8,47.25
SOCHAUX,25600,4200,6.83333,47.5167
RIEC-SUR-BELON,29340,4200,-3.7,47.8333
LOCTUDY,29750,4200,-4.16667,47.8333
AIMARGUES,30470,4200,4.2,43.6833
LA REOLE,33190,4200,-0.033333,44.5833
PINEUILH,33220,4200,0.216667,44.8167
CAZOULS-LES-BEZIERS,34370,4200,3.1,43.3833
LA MEZIERE,35520,4200,-1.75,48.2167
LA GUERCHE-DE-BRETAGNE,35130,4200,-1.23333,47.9333
COUBLEVIE,38500,4200,5.61667,45.35
CHAVANOZ,38230,4200,5.16667,45.7833
LA CHAUSSEE-SAINT-VICTOR,41260,4200,1.36667,47.6167
SAINT-LAURENT-NOUAN,41220,4200,1.61167,47.7167
SAINT-JUST-MALMONT,43240,4200,4.31667,45.3333
SAINT-LYPHARD,44410,4200,-2.3,47.4
LIGNE,44850,4200,-1.38333,47.4167
LEGE,44650,4200,-1.6,46.8833
MESANGER,44522,4200,-1.23333,47.4333
LA HAIE-FOUASSIERE,44690,4200,-1.4,47.15
VIHIERS,49310,4200,-0.533333,47.15
TIERCE,49125,4200,-0.466667,47.6167
BRICQUEBEC,50260,4200,-1.63333,49.4667
AGNEAUX,50180,4200,-1.1,49.1167
ECROUVES,54200,4200,5.85,48.6833
LOCMIQUELIC,56570,4200,-3.35,47.7167
BOUZONVILLE,57320,4200,6.53333,49.3
ROUSIES,59131,4200,4,50.2667
ESCAUTPONT,59278,4200,3.56667,50.4167
RAIMBEAUCOURT,59283,4200,3.08333,50.4333
ABSCON,59215,4200,3.3,50.3333
HERGNIES,59199,4200,3.51667,50.4667
BRESLES,60510,4200,2.25,49.4167
ARDRES,62610,4200,1.98333,50.85
MORLAAS,64160,4200,-0.266667,43.35
SAINT-GEORGES-DE-RENEINS,69830,4200,4.71667,46.0667
SATHONAY-CAMP,69580,4200,4.86667,45.8167
JACOB-BELLECOMBETTE,73000,4200,5.91667,45.55
LE BOURGET-DU-LAC,73370,4200,5.86667,45.65
BROU-SUR-CHANTEREINE,77177,4200,2.63333,48.8833
JOUARRE,77640,4200,3.13333,48.9333
CREGY-LES-MEAUX,77124,4200,2.88333,48.9833
LA FERTE-GAUCHER,77320,4200,3.3,48.7833
ECQUEVILLY,78920,4200,1.91667,48.95
MAURECOURT,78780,4200,2.06667,49
VILLERS-BRETONNEUX,80380,4200,2.51667,49.8667
LISLE-SUR-TARN,81310,4200,1.8,43.85
RIANS,83560,4200,5.75,43.6167
LE FENOUILLER,85800,4200,-1.91667,46.7167
LEUVILLE-SUR-ORGE,91310,4200,2.25,48.6167
LUZARCHES,95270,4200,2.41667,49.1167
GATTIERES,6510,4100,7.18333,43.7667
ROGNONAS,13870,4100,4.8,43.9
CEYRESTE,13600,4100,5.63333,43.2167
JOUQUES,13490,4100,5.63333,43.6333
FLEURY-SUR-ORNE,14123,4100,-0.383333,49.15
BRETTEVILLE-SUR-ODON,14760,4100,-0.416667,49.1667
FOURAS,17450,4100,-1.1,45.9833
HILLION,22120,4100,-2.68333,48.5167
AUBUSSON,23200,4100,2.16667,45.95
RIBERAC,24600,4100,0.333333,45.25
ORNANS,25290,4100,6.15,47.1
LE NEUBOURG,27110,4100,0.916667,49.15
NOGENT-LE-ROI,28210,4100,1.53333,48.65
AUNEAU,28700,4100,1.76667,48.45
PLOMELIN,29700,4100,-4.15,47.9333
POULX,30320,4100,4.41667,43.9167
SAINT-MARTIN-DE-VALGALGUES,30520,4100,4.08333,44.1667
SAINT-HILAIRE-DE-BRETHMAS,30560,4100,4.13333,44.0833
BELIN-BELIET,33830,4100,-0.79,44.4975
SERVIAN,34290,4100,3.3,43.4167
SAUVIAN,34410,4100,3.26667,43.3
IFFENDIC,35750,4100,-2.03333,48.1333
ARGENTRE-DU-PLESSIS,35370,4100,-1.15,48.0667
VERETZ,37270,4100,0.8,47.3667
MORESTEL,38510,4100,5.46667,45.6667
SALAISE-SUR-SANNE,38150,4100,4.81667,45.3333
RUY,38300,4100,5.31667,45.5833
VILLETTE-D'ANTHON,38280,4100,5.11667,45.8
TAVAUX,39500,4100,5.4,47.0333
MONTOIRE-SUR-LE-LOIR,41800,4100,0.866667,47.75
SAINT-PAUL-EN-JAREZ,42740,4100,4.58333,45.4833
FRAISSES,42490,4100,4.26612,45.3878
SAINT-MARCELLIN-EN-FOREZ,42680,4100,4.16667,45.4833
BRIVES-CHARENSAC,43700,4100,3.93333,45.05
LE CROISIC,44490,4100,-2.51667,47.3
SAINT-HILAIRE-DU-HARCOUET,50600,4100,-1.1,48.5833
PONTORSON,50170,4100,-1.51667,48.55
AY,51160,4100,4,49.05
VARANGEVILLE,54110,4100,6.31667,48.6333
BLAINVILLE-SUR-L'EAU,54360,4100,6.4,48.55
PAGNY-SUR-MOSELLE,54530,4100,6.01667,48.9833
GOURIN,56110,4100,-3.6,48.1333
SEREMANGE-ERZANGE,57290,4100,6.08333,49.3167
BOUCHAIN,59111,4100,3.31667,50.2833
MORTAGNE-AU-PERCHE,61400,4100,0.55,48.5167
SAILLY-SUR-LA-LYS,62840,4100,2.76667,50.65
RANG-DU-FLIERS,62180,4100,1.65,50.4167
LESTREM,62136,4100,2.68333,50.6167
BAPAUME,62450,4100,2.85,50.1
BORDERES-SUR-L'ECHEZ,65320,4100,0.05,43.2667
POLLESTRES,66450,4100,2.86667,42.6333
CHATENOIS,67730,4100,7.4,48.2667
INGWILLER,67340,4100,7.48333,48.8667
BONNETABLE,72110,4100,0.433333,48.1833
LE LUDE,72800,4100,0.15,47.65
MONTMELIAN,73800,4100,6.06667,45.5
DUCLAIR,76480,4100,0.883333,49.4833
LE HOULME,76770,4100,1.03333,49.5167
CRECY-LA-CHAPELLE,77580,4100,2.9075,48.8589
BONNIERES-SUR-SEINE,78270,4100,1.58333,49.0333
FOURQUEUX,78112,4100,2.06667,48.8833
NANS-LES-PINS,83860,4100,5.78333,43.3667
ROBION,84440,4100,5.11667,43.85
CHEVAL-BLANC,84460,4100,5.06667,43.8
SAINT-HILAIRE-DE-LOULAY,85600,4100,-1.33333,47
RILHAC-RANCON,87570,4100,1.31667,45.9
LE VAL-D'AJOL,88340,4100,6.48333,47.9167
LA NORVILLE,91290,4100,2.26667,48.5833
LE THILLAY,95500,4100,2.46667,49
LUCCIANA,20290,4100,9.41723,42.5459
SAINT-GEORGES,97313,4037,3.88819,-51.802
REYRIEUX,1600,4000,4.81667,45.9333
DEAUVILLE,14800,4000,0.075277,49.36
CABOURG,14390,4000,0.133333,49.2833
TOUQUES,14800,4000,0.1,49.3333
PLEUMEUR-BODOU,22560,4000,-3.51667,48.7667
SAINT-VALLIER,26240,4000,4.81667,45.1667
PONT-DE-L'ARCHE,27340,4000,1.16667,49.3
GRAVIGNY,27930,4000,1.16667,49.05
SAINT-LUBIN-DES-JONCHERETS,28350,4000,1.21667,48.7667
CLOHARS-CARNOET,29360,4000,-3.58333,47.8
LE VIGAN,30120,4000,3.6,43.9833
VERGEZE,30310,4000,4.21667,43.7333
VILLEFRANCHE-DE-LAURAGAIS,31290,4000,1.73333,43.4
BOULOC,31620,4000,1.41667,43.7833
MARCHEPRIME,33380,4000,-0.85,44.6833
TRESSES,33370,4000,-0.466667,44.85
CREON,33670,4000,-0.35,44.7833
LUDON-MEDOC,33290,4000,-0.6,44.9833
GANGES,34190,4000,3.7,43.9333
SAINTE-MAURE-DE-TOURAINE,37800,4000,0.616667,47.1
LANGEAIS,37130,4000,0.4,47.3333
VILLARD-DE-LANS,38250,4000,5.55,45.0667
LANGEAC,43300,4000,3.48333,45.1
SAINT-PERE-EN-RETZ,44320,4000,-2.03333,47.2
SAINT-MARS-DU-DESERT,44850,4000,-1.4,47.3667
SAINT-JOACHIM,44720,4000,-2.2,47.3833
NEUVILLE-AUX-BOIS,45170,4000,02.05,48.0667
MONTREUIL-BELLAY,49260,4000,-0.15,47.1333
LA POMMERAYE,49620,4000,-0.85,47.35
NOGENT,52800,4000,5.34528,48.0295
BOUXIERES-AUX-DAMES,54136,4000,6.16667,48.75
BADEN,56870,4000,-2.91667,47.6167
LOCMINE,56500,4000,-2.83333,47.8833
CREHANGE,57690,4000,6.58333,49.05
LOURCHES,59156,4000,3.35,50.3167
STEENVOORDE,59114,4000,2.58333,50.8
HALLENNES-LEZ-HAUBOURDIN,59320,4000,2.95945,50.6134
